"ape_preco","ape_precom2","ape_area","ape_dorm","ape_suite","ape_banheiro","ape_vaga","cond_nome","cond_end","cond_ano","cond_n_torres","cond_elevador","salao.de.festas","espaco.gourmet","academia","salao.de.jogos","brinquedoteca","playground","churrasqueira","quadra","area.verde","piscina","espaco.zen","lavanderia","coworking","zeu","sp_nome","latitude","longitude","gi_df"
"880.000",8627,102,2,1,2,2,"condominio montecatini","rua francisco cruz, 239 . aclimacao",1993,1,1,1,0,1,1,0,1,1,1,1,1,0,0,0,1,"VILA MARIANA",-23.5904622,-46.6327863,0
"1.175.000",8703,135,4,1,2,2,"condominio saint paul de vence","rua bartolomeu de gusmao, 452 . aclimacao",1992,1,1,1,1,1,0,1,1,1,0,0,1,0,0,0,1,"VILA MARIANA",-23.5870405,-46.6317352,0
"1.570.000",8532,184,3,1,3,2,"condominio summer hill","rua rodrigo claudio, 493 . aclimacao",1993,1,1,1,1,0,0,0,1,1,0,1,0,0,0,0,0,"SE",-23.5741966,-46.635491,0
"1.100.000",13.095,84,3,1,2,2,"condominio essencialy vila mariana","rua gaspar lourenco, 200 . aclimacao",2008,1,1,1,1,1,1,1,1,1,1,1,1,0,0,0,1,"VILA MARIANA",-23.5817346,-46.6349006,0
"1.050.000",8898,118,3,1,3,2,"condominio baia blanca","rua urano, 18 . aclimacao",1977,1,1,1,0,1,0,0,1,0,1,1,1,0,0,0,1,"SE",-23.5707691,-46.6364455,0
"3.680.000",13.529,272,4,1,4,6,"ND","0",NA,NA,NA,NA,NA,NA,NA,NA,NA,NA,NA,NA,NA,NA,NA,NA,NA,NA,NA,NA,0
"600.000",8108,74,2,1,2,2,"condominio . sao jose","rua paula ney, 174 . aclimacao",1993,1,1,0,0,0,0,0,1,0,0,0,1,0,0,0,0,"VILA MARIANA",-23.5767322,-46.6348048,0
"1.058.000",13.921,76,2,1,3,1,"condominio new parker","rua almeida torres, 141 . aclimacao",2015,3,1,1,1,1,1,1,1,1,1,1,1,0,0,0,0,"SE",-23.5683359,-46.6276578,0
"1.250.000",7485,167,2,1,4,2,"ND","0",NA,NA,NA,NA,NA,NA,NA,NA,NA,NA,NA,NA,NA,NA,NA,NA,NA,NA,NA,NA,0
"720.000",5625,128,2,0,1,1,"condominio santa maria","rua jose getulio, 461 . aclimacao",1954,1,1,1,1,1,1,1,1,1,1,1,1,0,0,0,0,"SE",-23.5692642,-46.6338027,0
"1.400.000",10.218,137,3,1,3,2,"condominio residencial aclimacao","rua doutor nicolau de sousa queiros, 297 . aclimacao",1973,3,1,1,1,1,1,1,1,1,1,1,1,0,0,0,1,"VILA MARIANA",-23.5788122,-46.6388122,0
"890.000",6846,130,3,0,2,1,"condominio maria & josephina","rua correia dias, 476 . aclimacao",1978,2,1,0,0,0,0,0,1,0,1,0,0,0,0,0,1,"VILA MARIANA",-23.5769688,-46.6384991,0
"4.050.000",14.889,272,4,1,5,6,"ND","0",NA,NA,NA,NA,NA,NA,NA,NA,NA,NA,NA,NA,NA,NA,NA,NA,NA,NA,NA,NA,0
"540.000",11.489,47,2,0,1,0,"condominio hello vila mariana","rua gaspar lourenco, 260 . aclimacao",2021,1,1,0,1,1,1,1,1,0,1,1,1,0,0,0,1,"VILA MARIANA",-23.5822187,-46.6344025,0
"1.850.000",8043,230,4,1,4,3,"condominio ramalho bosisio","0",NA,NA,NA,NA,NA,NA,NA,NA,NA,NA,NA,NA,NA,NA,NA,NA,NA,NA,NA,NA,0
"6.700.000",17.179,390,2,1,5,6,"ND","0",NA,NA,NA,NA,NA,NA,NA,NA,NA,NA,NA,NA,NA,NA,NA,NA,NA,NA,NA,NA,0
"2.800.000",8187,342,4,1,6,4,"condominio diamond tower","rua castro alves, 488 . aclimacao",1992,1,1,1,1,1,1,1,1,1,0,1,1,0,0,0,1,"SE",-23.5697871,-46.6363925,0
"670.000",7976,84,2,0,2,0,"condominio dom casmurro","rua machado de assis 165, aclimacao",NA,NA,NA,NA,NA,NA,NA,NA,NA,NA,NA,NA,NA,NA,NA,NA,1,"VILA MARIANA",-23.5816327,-46.6362048,0
"750.000",9493,79,3,1,2,2,"condominio piazzeta di portofino","rua bueno de andrade, 706 . aclimacao",2005,2,1,1,1,1,1,1,1,1,0,1,1,0,0,0,0,"SE",-23.5666812,-46.631205,0
"2.395.000",15.966,150,3,1,5,3,"condominio cyrela legacy vila mariana","rua dona carolina, 60 . aclimacao",2017,1,1,1,1,1,1,1,1,1,1,1,1,0,0,0,0,"VILA MARIANA",-23.5838238,-46.6314971,0
"1.255.000",16.513,76,2,1,3,1,"condominio new parker","rua almeida torres, 141 . aclimacao",2015,3,1,1,1,1,1,1,1,1,1,1,1,0,0,0,0,"SE",-23.5683359,-46.6276578,0
"750.000",15.306,49,2,1,2,1,"condominio vn casa topazio","rua topazio, 701 . aclimacao",2016,1,1,1,1,1,1,1,1,0,0,1,1,0,0,0,0,"VILA MARIANA",-23.5763014,-46.6350121,0
"3.000.000",16.574,181,3,1,4,3,"ND","0",NA,NA,NA,NA,NA,NA,NA,NA,NA,NA,NA,NA,NA,NA,NA,NA,NA,NA,NA,NA,0
"1.244.170",10.818,115,3,1,2,2,"condominio belvedere","avenida armando ferrentini, 320 . aclimacao",1996,1,1,0,1,1,0,0,1,0,1,1,1,0,0,0,0,"SE",-23.574232,-46.6344656,0
"426.000",7888,54,2,0,1,1,"condominio plaza","rua conselheiro furtado, 1265 . aclimacao",2013,1,1,0,1,1,1,0,0,0,0,0,1,0,0,0,0,"SE",-23.5642916,-46.6322604,0
"1.550.000",20.945,74,1,1,2,2,"condominio retrato paulista","rua nilo, 170 . aclimacao",2017,1,1,1,1,1,1,1,1,1,1,1,1,0,0,0,1,"SE",-23.5714292,-46.6375001,0
"1.870.000",7480,250,4,1,5,2,"condominio glen miller","rua castro alves, 910 . aclimacao",1991,1,1,1,1,1,0,0,1,1,1,1,1,0,0,0,0,"SE",-23.572644,-46.6336452,0
"460.000",7187,64,2,0,2,1,"condominio camboriu","avenida armando ferrentini, 563 . aclimacao",1979,1,1,1,0,1,0,0,0,0,0,1,0,0,0,0,1,"VILA MARIANA",-23.5757478,-46.6358439,0
"1.390.000",8176,170,4,1,4,3,"ND","0",NA,NA,NA,NA,NA,NA,NA,NA,NA,NA,NA,NA,NA,NA,NA,NA,NA,NA,NA,NA,0
"950.000",10000,120,3,1,3,2,"condominio fabia","0",NA,NA,NA,NA,NA,NA,NA,NA,NA,NA,NA,NA,NA,NA,NA,NA,NA,NA,NA,NA,0
"1.758.251",7992,220,4,1,5,3,"condominio aramanta","rua jupiter, 149 . aclimacao",1989,1,1,0,1,0,0,1,1,0,0,0,1,0,0,0,0,"SE",-23.5725797,-46.6343848,0
"1.500.000",14.15,106,3,1,4,2,"condominio residencial aclimacao","rua doutor nicolau de sousa queiros, 297 . aclimacao",1973,3,1,1,1,1,1,1,1,1,1,1,1,0,0,0,1,"VILA MARIANA",-23.5788122,-46.6388122,0
"970.000",12.763,76,2,1,3,1,"condominio new parker","rua almeida torres, 141 . aclimacao",2015,3,1,1,1,1,1,1,1,1,1,1,1,0,0,0,0,"SE",-23.5683359,-46.6276578,0
"710.000",7473,95,3,1,3,2,"condominio seyde haddad sabbag","rua rodrigo claudio, 197 . aclimacao",1982,1,1,0,0,0,0,1,1,0,0,1,1,0,0,0,0,"SE",-23.5717843,-46.6355052,0
"500.000",7142,70,2,0,2,1,"condominio miami ii","rua alvaro neto, 212 . aclimacao",1972,1,1,1,1,1,1,1,1,1,1,1,1,0,0,0,0,"VILA MARIANA",-23.5842444,-46.6281708,0
"1.100.000",7534,146,3,1,3,2,"ND","0",NA,NA,NA,NA,NA,NA,NA,NA,NA,NA,NA,NA,NA,NA,NA,NA,NA,NA,NA,NA,0
"800.000",7017,114,3,0,2,3,"condominio evolucao","rua topazio, 878 . aclimacao",1970,1,1,1,0,0,0,0,0,0,0,0,0,0,0,0,1,"VILA MARIANA",-23.5776041,-46.6358006,0
"630.000",10000,63,2,0,2,1,"condominio aruja","rua doutor neto de araujo, 187 . aclimacao",1989,1,1,0,1,0,0,0,1,0,0,1,0,0,0,0,1,"VILA MARIANA",-23.586965,-46.6328988,0
"849.900",7082,120,3,1,3,1,"condominio estrela polar","rua gaspar lourenco, 65 . aclimacao",1975,1,1,1,1,0,0,0,0,0,0,1,0,0,0,0,1,"VILA MARIANA",-23.5805491,-46.6351939,0
"2.340.000",9360,250,4,1,4,3,"condominio casaredo","rua jupiter, 186 . aclimacao",1987,1,1,1,0,0,0,0,1,0,0,1,0,0,0,0,0,"SE",-23.5724433,-46.6347916,0
"546.035",7690,71,2,0,2,1,"condominio graziela","rua bartolomeu de gusmao, 412 . aclimacao",1988,1,1,0,0,0,0,0,1,0,0,0,1,0,0,0,1,"VILA MARIANA",-23.5867108,-46.6318694,0
"2.650.000",14.402,184,3,1,5,3,"condominio verace","rua artur saboia, 205 . aclimacao",2006,1,1,1,1,1,1,1,1,0,1,1,1,0,0,0,1,"VILA MARIANA",-23.5762896,-46.6372362,0
"1.500.000",11.538,130,4,1,4,3,"condominio villa d'este","rua doutor nicolau de sousa queiros, 194 . aclimacao",1989,1,1,1,1,1,1,0,0,0,0,1,1,0,0,0,1,"VILA MARIANA",-23.57821,-46.638708,0
"997.000",5864,170,4,1,2,2,"ND","0",NA,NA,NA,NA,NA,NA,NA,NA,NA,NA,NA,NA,NA,NA,NA,NA,NA,NA,NA,NA,0
"1.970.000",18.24,108,3,1,3,2,"condominio retrato paulista","rua nilo, 170 . aclimacao",2017,1,1,1,1,1,1,1,1,1,1,1,1,0,0,0,1,"SE",-23.5714292,-46.6375001,0
"640.000",12.307,52,2,0,1,1,"condominio . code aclimacao","rua bueno de andrade, 662 . aclimacao",2016,1,1,1,1,1,1,1,1,0,1,1,1,0,0,0,0,"SE",-23.5662563,-46.6312868,0
"1.230.000",9179,134,3,1,3,2,"condominio paco de sorrento","rua castro alves, 908 . aclimacao",1986,1,1,1,1,1,0,0,0,1,0,1,1,0,0,0,0,"SE",-23.5725321,-46.6337852,0
"904.000",13.907,65,2,1,2,2,"condominio hall paulistano","avenida lins de vasconcelos, 2880 . aclimacao",2008,1,1,0,1,1,0,1,1,0,0,1,1,0,0,0,0,"VILA MARIANA",-23.5871442,-46.6290189,0
"760.000",9268,82,3,1,2,2,"condominio buriti","rua alvaro neto, 428 . aclimacao",1995,1,1,0,0,1,0,0,1,1,0,1,1,0,0,0,0,"VILA MARIANA",-23.5824898,-46.6282632,0
"1.300.000",7647,170,4,1,4,3,"ND","0",NA,NA,NA,NA,NA,NA,NA,NA,NA,NA,NA,NA,NA,NA,NA,NA,NA,NA,NA,NA,0
"1.350.000",8598,157,3,1,5,2,"condominio monte verde","rua batista caetano, 39 . aclimacao",1994,1,1,1,0,0,0,0,0,0,1,1,1,0,0,0,0,"SE",-23.577464,-46.6275113,0
"2.100.000",10.606,198,4,1,5,3,"ND","0",NA,NA,NA,NA,NA,NA,NA,NA,NA,NA,NA,NA,NA,NA,NA,NA,NA,NA,NA,NA,0
"1.350.000",5400,250,3,1,4,2,"condominio marcela","rua loureiro da cruz, 270 . aclimacao",1980,1,1,1,0,0,1,0,1,0,0,1,1,0,0,0,0,"SE",-23.5704746,-46.6342178,0
"740.000",7047,105,3,1,2,1,"condominio rochester","avenida da aclimacao, 193 . aclimacao",1977,1,1,0,0,1,0,0,0,0,0,1,1,0,0,0,0,"SE",-23.5683482,-46.6330482,0
"1.064.000",14,76,2,1,3,1,"condominio new parker","rua almeida torres, 141 . aclimacao",2015,3,1,1,1,1,1,1,1,1,1,1,1,0,0,0,0,"SE",-23.5683359,-46.6276578,0
"620.000",5904,105,3,1,2,1,"ND","0",NA,NA,NA,NA,NA,NA,NA,NA,NA,NA,NA,NA,NA,NA,NA,NA,NA,NA,NA,NA,0
"1.700.000",8500,200,4,1,5,4,"ND","0",NA,NA,NA,NA,NA,NA,NA,NA,NA,NA,NA,NA,NA,NA,NA,NA,NA,NA,NA,NA,0
"1.000.000",6666,150,3,0,2,1,"condominio urano","0",NA,NA,NA,NA,NA,NA,NA,NA,NA,NA,NA,NA,NA,NA,NA,NA,NA,NA,NA,NA,0
"750.000",6410,117,3,1,2,1,"condominio jatoba","rua urano, 9 . aclimacao",1984,1,1,1,0,1,1,1,1,0,1,1,1,0,0,0,1,"SE",-23.5705178,-46.6367867,0
"830.000",9431,88,3,1,3,2,"condominio ana maria","0",NA,NA,NA,NA,NA,NA,NA,NA,NA,NA,NA,NA,NA,NA,NA,NA,NA,NA,NA,NA,0
"1.900.000",7600,250,4,1,5,3,"condominio adriana","rua castro alves, 806 . aclimacao",1983,1,1,0,1,0,0,0,1,0,0,1,1,0,0,0,0,"SE",-23.5718487,-46.6344652,0
"1.686.503",9215,183,4,1,5,3,"ND","0",NA,NA,NA,NA,NA,NA,NA,NA,NA,NA,NA,NA,NA,NA,NA,NA,NA,NA,NA,NA,0
"740.000",9250,80,3,1,2,2,"condominio piazzeta di portofino","rua bueno de andrade, 706 . aclimacao",2005,2,1,1,1,1,1,1,1,1,0,1,1,0,0,0,0,"SE",-23.5666812,-46.631205,0
"1.250.000",9259,135,4,1,4,2,"condominio saint paul de vence","rua bartolomeu de gusmao, 452 . aclimacao",1992,1,1,1,1,1,0,1,1,1,0,0,1,0,0,0,1,"VILA MARIANA",-23.5870405,-46.6317352,0
"1.651.384",8425,196,3,1,5,3,"condominio santa margherita","rua castro alves, 491 . aclimacao",1992,1,1,1,0,1,0,0,1,0,1,1,1,0,0,0,1,"SE",-23.5693249,-46.6361156,0
"766.000",10.942,70,2,1,2,1,"condominio village d oro","rua bartolomeu de gusmao, 430 . aclimacao",1998,1,0,0,0,1,1,1,1,0,1,1,1,0,0,0,1,"VILA MARIANA",-23.5868844,-46.6318701,0
"699.000",8524,82,1,1,1,1,"condominio turandot","rua dona avelina, 118 . aclimacao",1988,2,1,0,1,0,0,0,0,0,0,1,1,0,0,0,1,"VILA MARIANA",-23.5866898,-46.6323454,0
"1.200.000",8275,145,3,1,4,2,"condominio saint laurent","rua sebastiao carneiro, 249 . aclimacao",1975,1,1,1,0,0,0,0,0,0,0,0,0,0,0,0,0,"SE",-23.5751291,-46.6268827,0
"1.500.000",8196,183,3,1,5,3,"condominio piazza d'ante","rua rodrigo claudio, 299 . aclimacao",1985,1,1,1,0,0,0,0,0,0,0,1,0,0,0,0,0,"SE",-23.5723988,-46.636006,0
"2.180.000",15.46,141,3,1,5,2,"condominio new parker","rua almeida torres, 141 . aclimacao",2015,3,1,1,1,1,1,1,1,1,1,1,1,0,0,0,0,"SE",-23.5683359,-46.6276578,0
"1.300.000",7647,170,3,1,5,3,"condominio ana capri","rua espirito santo, 55 . aclimacao",1992,1,1,0,0,0,0,0,0,0,1,1,1,0,0,0,0,"SE",-23.5690037,-46.6320531,0
"372.600",7604,49,1,0,1,1,"condominio fujiama","rua bueno de andrade, 71 . aclimacao",1978,2,1,1,1,1,0,0,1,0,1,0,0,0,0,0,0,"SE",-23.5607497,-46.6312239,0
"640.000",9846,65,2,0,2,2,"condominio valenca","rua correia dias, 451 . aclimacao",1989,1,1,1,0,0,0,0,1,1,0,1,1,0,0,0,1,"VILA MARIANA",-23.576507,-46.6387273,0
"369.600",13.2,28,1,0,1,1,"condominio . code aclimacao","rua bueno de andrade, 662 . aclimacao",2016,1,1,1,1,1,1,1,1,0,1,1,1,0,0,0,0,"SE",-23.5662563,-46.6312868,0
"395.000",5197,76,2,0,1,0,"ND","0",NA,NA,NA,NA,NA,NA,NA,NA,NA,NA,NA,NA,NA,NA,NA,NA,NA,NA,NA,NA,0
"4.260.000",13.312,320,4,1,6,3,"condominio monte verde","rua do paraiso, 719 . aclimacao",1993,1,1,1,1,0,1,1,1,1,1,1,1,0,0,0,1,"SE",-23.5745979,-46.636275,0
"1.250.000",6613,189,4,1,4,3,"condominio status","rua rodrigo claudio, 58 . aclimacao",1978,1,1,0,0,0,0,0,0,0,0,1,0,0,0,0,0,"SE",-23.5708167,-46.6345992,0
"660.000",8250,80,2,0,2,1,"condominio alexandra","rua castro alves, 744 . aclimacao",1977,1,1,1,0,0,0,0,0,0,0,1,0,0,0,0,0,"SE",-23.5713477,-46.6347523,0
"674.172",10.371,65,3,1,2,2,"condominio piazzeta di portofino","rua bueno de andrade, 706 . aclimacao",2005,2,1,1,1,1,1,1,1,1,0,1,1,0,0,0,0,"SE",-23.5666812,-46.631205,0
"1.050.000",8974,117,3,1,4,3,"condominio aripuana","0",NA,NA,NA,NA,NA,NA,NA,NA,NA,NA,NA,NA,NA,NA,NA,NA,NA,NA,NA,NA,0
"450.000",12.162,37,1,0,1,2,"condominio maria antonieta","rua apeninos, 471 . aclimacao",1989,1,1,1,1,0,1,0,1,0,0,1,1,0,0,0,1,"SE",-23.5716107,-46.6388375,0
"1.500.000",7894,190,3,1,4,2,"condominio vereda","rua jupiter, 218 . aclimacao",1990,1,1,0,1,0,1,0,0,0,0,1,1,0,0,0,0,"SE",-23.5727155,-46.6352032,0
"378.000",8042,47,2,0,1,1,"condominio miami","avenida lins de vasconcelos, 2534 . aclimacao",1972,2,1,1,1,1,1,1,1,1,1,1,1,0,0,0,0,"VILA MARIANA",-23.5844278,-46.6277654,0
"745.000",9675,77,3,0,2,1,"condominio saint hilaire","rua dona avelina, 77 . aclimacao",1995,1,1,1,1,0,0,0,1,0,0,1,1,0,0,0,1,"VILA MARIANA",-23.5864298,-46.6331039,0
"1.800.000",8411,214,4,1,5,3,"condominio firenze","rua safira, 420 . aclimacao",1996,1,1,1,0,0,0,0,1,0,0,0,1,0,0,0,0,"SE",-23.573645,-46.6349744,0
"515.200",6605,78,3,0,2,1,"condominio conde de ipanema","rua muniz de sousa, 914 . aclimacao",1984,1,1,1,1,1,1,1,1,1,1,1,1,0,0,0,0,"SE",-23.5708128,-46.6280521,0
"1.564.000",9200,170,3,1,5,3,"condominio ana lucia","rua castro alves, 601 . aclimacao",1994,1,1,0,0,0,0,0,0,0,0,1,1,0,0,0,0,"SE",-23.5701749,-46.6353768,0
"940.000",9126,103,3,1,3,1,"condominio jardins de mariana","rua doutor pinto ferraz, 97 . aclimacao",1989,1,1,1,1,1,1,1,1,1,1,1,1,0,0,0,1,"VILA MARIANA",-23.5898805,-46.632532,0
"960.000",9600,100,2,1,2,2,"ND","0",NA,NA,NA,NA,NA,NA,NA,NA,NA,NA,NA,NA,NA,NA,NA,NA,NA,NA,NA,NA,0
"640.000",9846,65,3,1,2,1,"condominio piazzeta di portofino","rua bueno de andrade, 706 . aclimacao",2005,2,1,1,1,1,1,1,1,1,0,1,1,0,0,0,0,"SE",-23.5666812,-46.631205,0
"1.365.000",22.75,60,1,1,2,2,"condominio all aclimacao","rua paula ney, 100 . aclimacao",2016,2,1,1,1,1,1,0,1,1,1,1,1,0,0,0,0,"VILA MARIANA",-23.5761772,-46.6342771,0
"1.070.000",7985,134,3,1,4,2,"condominio cozumel","rua jose getulio, 334 . aclimacao",1996,1,1,1,0,0,1,0,0,0,1,1,1,0,0,0,0,"SE",-23.5687045,-46.6348991,0
"390.000",6190,63,2,0,1,0,"ND","0",NA,NA,NA,NA,NA,NA,NA,NA,NA,NA,NA,NA,NA,NA,NA,NA,NA,NA,NA,NA,0
"2.400.000",10.389,231,3,1,5,3,"condominio lugano","rua espirito santo, 25 . aclimacao",2006,1,1,0,1,1,0,0,0,0,1,1,1,0,0,0,0,"SE",-23.5691313,-46.6322604,0
"1.900.000",5828,326,6,1,6,3,"condominio maison bonnard","rua rodrigo claudio, 308 . aclimacao",1993,1,1,1,1,1,1,1,0,0,0,1,1,0,0,0,1,"SE",-23.5721314,-46.6364634,0
"450.000",11.25,40,1,0,1,1,"ND","0",NA,NA,NA,NA,NA,NA,NA,NA,NA,NA,NA,NA,NA,NA,NA,NA,NA,NA,NA,NA,0
"400.000",7407,54,1,0,1,1,"condominio monte paraiso","rua doutor nicolau de sousa queiros, 760 . aclimacao",1999,1,1,1,0,1,0,0,1,0,0,1,1,0,0,0,1,"VILA MARIANA",-23.5779664,-46.6360378,0
"475.000",5792,82,2,0,2,0,"ND","0",NA,NA,NA,NA,NA,NA,NA,NA,NA,NA,NA,NA,NA,NA,NA,NA,NA,NA,NA,NA,0
"1.800.000",9677,186,4,1,5,3,"condominio villa d'este","rua doutor nicolau de sousa queiros, 194 . aclimacao",1989,1,1,1,1,1,1,0,0,0,0,1,1,0,0,0,1,"VILA MARIANA",-23.57821,-46.638708,0
"1.115.000",15.067,74,2,1,2,2,"condominio retrato paulista","rua nilo, 170 . aclimacao",2017,1,1,1,1,1,1,1,1,1,1,1,1,0,0,0,1,"SE",-23.5714292,-46.6375001,0
"810.625",4503,180,3,1,2,1,"condominio itanhacu","rua castro alves, 402 . aclimacao",1974,1,1,1,0,0,0,0,0,0,0,0,0,0,0,0,1,"SE",-23.5689501,-46.6368104,0
"1.900.000",13.103,145,4,1,4,3,"condominio santa margherita","rua castro alves, 491 . aclimacao",1992,1,1,1,0,1,0,0,1,0,1,1,1,0,0,0,1,"SE",-23.5693249,-46.6361156,0
"852.000",8037,106,3,1,4,2,"ND","0",NA,NA,NA,NA,NA,NA,NA,NA,NA,NA,NA,NA,NA,NA,NA,NA,NA,NA,NA,NA,0
"1.520.000",9440,161,3,1,4,3,"condominio maison bonnard","rua rodrigo claudio, 308 . aclimacao",1993,1,1,1,1,1,1,1,0,0,0,1,1,0,0,0,1,"SE",-23.5721314,-46.6364634,0
"720.000",9113,79,2,0,2,1,"condominio siegfried","rua espirito santo, 195 . aclimacao",1970,1,1,1,1,1,1,1,1,1,1,1,1,0,0,0,0,"SE",-23.5683047,-46.6307814,0
"1.700.000",7264,234,3,1,4,3,"ND","0",NA,NA,NA,NA,NA,NA,NA,NA,NA,NA,NA,NA,NA,NA,NA,NA,NA,NA,NA,NA,0
"1.200.000",6000,200,3,0,2,2,"ND","0",NA,NA,NA,NA,NA,NA,NA,NA,NA,NA,NA,NA,NA,NA,NA,NA,NA,NA,NA,NA,0
"910.000",7777,117,3,1,3,1,"condominio ana-hila-liguori","rua topazio, 237 . aclimacao",1970,1,1,1,1,1,1,1,1,1,1,1,1,0,0,0,0,"SE",-23.5739398,-46.6311594,0
"1.300.000",9489,137,3,1,3,1,"condominio residencial aclimacao","rua doutor nicolau de sousa queiros, 297 . aclimacao",1973,3,1,1,1,1,1,1,1,1,1,1,1,0,0,0,1,"VILA MARIANA",-23.5788122,-46.6388122,0
"1.100.000",7333,150,3,1,5,2,"condominio park prince","rua rodrigo claudio, 59 . aclimacao",1989,1,1,1,0,0,0,0,0,0,0,0,1,0,0,0,0,"SE",-23.5710194,-46.6343902,0
"700.000",9611,67,2,0,1,1,"condominio lais","rua do paraiso, 353 . aclimacao",1976,1,1,1,1,1,1,1,1,1,1,1,1,0,0,0,1,"SE",-23.573664,-46.639759,0
"850.000",7727,110,3,1,4,1,"condominio baltico","rua doutor nicolau de sousa queiros 56, aclimacao",NA,NA,NA,NA,NA,NA,NA,NA,NA,NA,NA,NA,NA,NA,NA,NA,1,"VILA MARIANA",-23.5780626,-46.6397612,0
"438.000",7551,58,1,0,1,1,"condominio rio prata","rua vergueiro, 3315 . aclimacao",1982,1,1,1,0,0,0,0,0,0,0,0,0,0,0,0,1,"VILA MARIANA",-23.589125,-46.6315,0
"1.690.000",8450,200,3,1,3,3,"ND","0",NA,NA,NA,NA,NA,NA,NA,NA,NA,NA,NA,NA,NA,NA,NA,NA,NA,NA,NA,NA,0
"586.000",8138,72,2,0,1,1,"ND","0",NA,NA,NA,NA,NA,NA,NA,NA,NA,NA,NA,NA,NA,NA,NA,NA,NA,NA,NA,NA,0
"1.063.830",7500,130,3,1,3,1,"condominio la wally","rua topazio, 926 . aclimacao",1970,1,1,1,0,0,0,0,1,0,1,0,0,0,0,0,1,"VILA MARIANA",-23.5780535,-46.6357161,0
"720.000",6000,120,2,0,2,1,"ND","0",NA,NA,NA,NA,NA,NA,NA,NA,NA,NA,NA,NA,NA,NA,NA,NA,NA,NA,NA,NA,0
"1.610.000",7666,210,3,1,4,3,"ND","0",NA,NA,NA,NA,NA,NA,NA,NA,NA,NA,NA,NA,NA,NA,NA,NA,NA,NA,NA,NA,0
"1.800.000",6666,270,3,1,NA,4,"condominio baia blanca","rua urano, 18 . aclimacao",1977,1,1,1,0,1,0,0,1,0,1,1,1,0,0,0,1,"SE",-23.5707691,-46.6364455,0
"1.000.000",6535,153,3,1,3,1,"condominio la wally","rua topazio, 926 . aclimacao",1970,1,1,1,0,0,0,0,1,0,1,0,0,0,0,0,1,"VILA MARIANA",-23.5780535,-46.6357161,0
"1.500.000",9554,157,4,1,5,3,"ND","0",NA,NA,NA,NA,NA,NA,NA,NA,NA,NA,NA,NA,NA,NA,NA,NA,NA,NA,NA,NA,0
"1.800.000",9000,200,3,1,4,3,"condominio giardino","rua jupiter, 127 . aclimacao",1988,1,1,0,0,0,0,0,0,0,0,1,1,0,0,0,0,"SE",-23.572564,-46.634164,0
"1.090.000",6055,180,3,1,2,1,"ND","0",NA,NA,NA,NA,NA,NA,NA,NA,NA,NA,NA,NA,NA,NA,NA,NA,NA,NA,NA,NA,0
"1.900.000",12.582,151,3,1,5,3,"condominio vila nova mariana condominium - a","0",NA,NA,NA,NA,NA,NA,NA,NA,NA,NA,NA,NA,NA,NA,NA,NA,NA,NA,NA,NA,0
"600.000",6666,90,2,0,1,1,"condominio antonio jose pinto","rua paulo orozimbo, 1162 . aclimacao",1981,1,1,1,1,1,1,1,1,1,1,1,1,0,0,0,0,"SE",-23.5777323,-46.6266964,0
"780.000",18.571,42,1,1,1,1,"condominio all aclimacao","rua paula ney, 100 . aclimacao",2016,2,1,1,1,1,1,0,1,1,1,1,1,0,0,0,0,"VILA MARIANA",-23.5761772,-46.6342771,0
"1.600.000",8888,180,4,1,3,3,"ND","0",NA,NA,NA,NA,NA,NA,NA,NA,NA,NA,NA,NA,NA,NA,NA,NA,NA,NA,NA,NA,0
"2.000.000",11.976,167,3,1,5,3,"condominio grand atelier","rua jaspe, 57 . aclimacao",2006,1,1,1,1,1,0,0,0,1,0,1,1,0,0,0,0,"SE",-23.5706326,-46.6322416,0
"475.000",8796,54,2,0,1,1,"condominio plaza","rua conselheiro furtado, 1299 . aclimacao",1994,1,1,0,0,1,0,0,0,0,0,0,0,0,0,0,0,"SE",-23.5646112,-46.6323026,0
"800.000",9876,81,2,0,2,1,"condominio carpareli","rua nilo, 241 . aclimacao",1967,1,1,0,0,1,0,0,1,0,0,1,0,0,0,0,1,"SE",-23.5720897,-46.6369346,0
"1.800.000",8372,215,4,1,5,3,"condominio central park","0",NA,NA,NA,NA,NA,NA,NA,NA,NA,NA,NA,NA,NA,NA,NA,NA,NA,NA,NA,NA,0
"595.000",9916,60,2,0,1,0,"ND","0",NA,NA,NA,NA,NA,NA,NA,NA,NA,NA,NA,NA,NA,NA,NA,NA,NA,NA,NA,NA,0
"750.000",9740,77,3,0,2,1,"condominio saint hilaire","rua dona avelina, 77 . aclimacao",1995,1,1,1,1,0,0,0,1,0,0,1,1,0,0,0,1,"VILA MARIANA",-23.5864298,-46.6331039,0
"945.009",9264,102,3,1,2,1,"condominio sao judas tadeu","rua topazio, 478 . aclimacao",1952,2,1,1,1,1,1,1,1,1,1,1,1,0,0,0,0,"SE",-23.5745145,-46.6335609,0
"1.620.000",10.253,158,3,1,5,3,"condominio santa lucia","rua batista do carmo, 171 . aclimacao",2005,1,1,1,1,1,0,0,1,0,0,1,1,0,0,0,0,"SE",-23.5756926,-46.6255137,0
"610.000",7820,78,2,0,2,1,"condominio genoveva","0",NA,NA,NA,NA,NA,NA,NA,NA,NA,NA,NA,NA,NA,NA,NA,NA,NA,NA,NA,NA,0
"1.270.000",8698,146,3,1,4,1,"condominio urania","rua urano, 304 . aclimacao",1976,1,1,1,0,0,0,0,0,0,0,0,0,0,0,0,0,"SE",-23.5691222,-46.634485,0
"710.000",10.441,68,2,1,2,2,"condominio giacomo puccini","rua baltazar lisboa, 98 . aclimacao",1998,1,1,0,0,1,0,0,1,0,0,0,1,0,0,0,1,"VILA MARIANA",-23.5862115,-46.6339984,0
"300.000",7692,39,1,0,1,1,"condominio fernanda","rua bueno de andrade, 456 . aclimacao",1989,1,1,0,0,0,0,0,0,1,0,0,0,0,0,0,0,"SE",-23.564265,-46.6319202,0
"440.000",10000,44,1,0,1,1,"condominio bruna","rua conselheiro furtado, 1132 . aclimacao",1990,1,1,1,0,0,0,0,0,1,0,0,0,0,0,0,0,"SE",-23.5630835,-46.6327673,0
"543.451",5843,93,3,0,2,1,"condominio senador","rua senador felicio dos santos, 230 . aclimacao",1977,1,1,1,1,1,1,1,1,1,1,1,1,0,0,0,0,"SE",-23.5655434,-46.6343713,0
"450.000",10.975,41,1,0,1,1,"condominio monte paraiso","rua doutor nicolau de sousa queiros, 760 . aclimacao",1999,1,1,1,0,1,0,0,1,0,0,1,1,0,0,0,1,"VILA MARIANA",-23.5779664,-46.6360378,0
"1.500.000",8241,182,4,1,3,1,"condominio . parque da aclimacao","rua castro alves, 654 . aclimacao",1956,2,1,1,1,1,1,1,1,0,1,1,1,0,0,0,0,"SE",-23.5713464,-46.63488,0
"1.800.000",9729,185,3,1,3,3,"condominio santa margherita","rua castro alves, 491 . aclimacao",1992,1,1,1,0,1,0,0,1,0,1,1,1,0,0,0,1,"SE",-23.5693249,-46.6361156,0
"1.190.000",6611,180,3,1,4,1,"ND","0",NA,NA,NA,NA,NA,NA,NA,NA,NA,NA,NA,NA,NA,NA,NA,NA,NA,NA,NA,NA,0
"430.000",7818,55,1,0,1,0,"ND","0",NA,NA,NA,NA,NA,NA,NA,NA,NA,NA,NA,NA,NA,NA,NA,NA,NA,NA,NA,NA,0
"1.940.000",7760,250,4,1,NA,3,"condominio glen miller","rua castro alves, 910 . aclimacao",1991,1,1,1,1,1,0,0,1,1,1,1,1,0,0,0,0,"SE",-23.572644,-46.6336452,0
"1.400.000",7608,184,4,1,3,3,"ND","rua safira 506, aclimacao",NA,NA,NA,NA,NA,NA,NA,NA,NA,NA,NA,NA,NA,NA,NA,NA,0,"SE",-23.5741814,-46.6354618,0
"612.000",12,51,3,0,1,1,"condominio . code aclimacao","rua bueno de andrade, 662 . aclimacao",2016,1,1,1,1,1,1,1,1,0,1,1,1,0,0,0,0,"SE",-23.5662563,-46.6312868,0
"630.000",8630,73,1,0,1,1,"ND","0",NA,NA,NA,NA,NA,NA,NA,NA,NA,NA,NA,NA,NA,NA,NA,NA,NA,NA,NA,NA,0
"480.000",10.909,44,1,0,1,1,"condominio bruna","rua conselheiro furtado, 1132 . aclimacao",1990,1,1,1,0,0,0,0,0,1,0,0,0,0,0,0,0,"SE",-23.5630835,-46.6327673,0
"653.038",NA,NA,NA,NA,NA,NA,NA,"0",NA,NA,NA,NA,NA,NA,NA,NA,NA,NA,NA,NA,NA,NA,NA,NA,NA,NA,NA,NA,0
"325.000",8125,40,1,0,1,0,"condominio lohengrin","rua jose getulio, 217 . aclimacao",1966,1,1,1,1,1,1,1,1,1,1,1,1,0,0,0,0,"SE",-23.5675631,-46.6353815,0
"350.000",8139,43,2,0,1,0,"condominio caetes","rua jose getulio, 130 . aclimacao",1968,1,1,1,1,1,1,1,1,1,1,1,1,0,0,0,1,"SE",-23.5672655,-46.6360318,0
"401.000",10.025,40,1,0,1,1,"ND","0",NA,NA,NA,NA,NA,NA,NA,NA,NA,NA,NA,NA,NA,NA,NA,NA,NA,NA,NA,NA,0
"900.000",8333,108,2,0,2,1,"condominio orquidea","rua da uniao, 420 . aclimacao",1972,1,1,1,1,1,1,1,1,1,1,1,1,0,0,0,0,"VILA MARIANA",-23.5811736,-46.6300519,0
"2.170.000",8857,245,3,1,NA,4,"ND","avenida engenheiro luiz gomes cardim sangirardi 607, aclimacao",NA,NA,NA,NA,NA,NA,NA,NA,NA,NA,NA,NA,NA,NA,NA,NA,0,"VILA MARIANA",-23.5841139,-46.6288681,0
"1.100.000",5978,184,2,1,3,2,"condominio remo","rua gregorio serrao, 219 . aclimacao",1986,1,1,1,0,1,0,0,1,1,0,0,0,0,0,0,1,"VILA MARIANA",-23.5823869,-46.635276,0
"525.000",7500,70,2,0,1,1,"ND","0",NA,NA,NA,NA,NA,NA,NA,NA,NA,NA,NA,NA,NA,NA,NA,NA,NA,NA,NA,NA,0
"650.000",8666,75,2,1,2,2,"condominio pau brasil","rua gaspar lourenco, 231 . aclimacao",1993,1,1,1,1,1,1,0,0,1,0,1,0,0,0,0,1,"VILA MARIANA",-23.5819103,-46.6343983,0
"414.000",12.176,34,1,0,1,1,"condominio mercure apt saint lawrence","rua vergueiro, 1661 . aclimacao",2000,1,1,0,0,1,0,0,1,0,0,0,1,0,0,0,1,"VILA MARIANA",-23.5768926,-46.6405314,0
"2.714.000",15.077,180,3,1,4,4,"ND","0",NA,NA,NA,NA,NA,NA,NA,NA,NA,NA,NA,NA,NA,NA,NA,NA,NA,NA,NA,NA,0
"622.000",13.822,45,2,1,2,1,"condominio four seasons park","rua loureiro da cruz, 354 . aclimacao",1998,1,1,1,1,1,1,0,1,1,0,1,1,0,0,0,0,"SE",-23.5713688,-46.6338203,0
"420.000",12,35,1,0,1,1,"condominio . code aclimacao","rua bueno de andrade, 662 . aclimacao",2016,1,1,1,1,1,1,1,1,0,1,1,1,0,0,0,0,"SE",-23.5662563,-46.6312868,0
"585.000",7992,71,2,0,1,1,"condominio silvia cristina","rua jose getulio, 546 . aclimacao",1981,1,1,1,0,0,0,0,0,0,0,0,0,0,0,0,0,"SE",-23.5701006,-46.6334306,0
"3.300.000",8461,390,2,1,4,5,"condominio ana lucia","rua castro alves, 601 . aclimacao",1994,1,1,0,0,0,0,0,0,0,0,1,1,0,0,0,0,"SE",-23.5701749,-46.6353768,0
"810.000",10.945,74,2,0,1,1,"ND","0",NA,NA,NA,NA,NA,NA,NA,NA,NA,NA,NA,NA,NA,NA,NA,NA,NA,NA,NA,NA,0
"1.359.276",6381,213,5,0,3,0,"ND","0",NA,NA,NA,NA,NA,NA,NA,NA,NA,NA,NA,NA,NA,NA,NA,NA,NA,NA,NA,NA,0
"380.000",6333,60,1,0,1,0,"condominio eneide","rua pires da mota, 735 . aclimacao",1973,1,1,0,0,0,0,0,1,0,0,1,0,0,0,0,0,"SE",-23.5682375,-46.6352038,0
"790.000",14.363,55,1,1,1,1,"condominio vn casa topazio","rua topazio, 701 . aclimacao",2016,1,1,1,1,1,1,1,1,0,0,1,1,0,0,0,0,"VILA MARIANA",-23.5763014,-46.6350121,0
"990.000",14.142,70,2,1,2,2,"condominio latitude aclimacao","rua dona brigida, 265 . aclimacao",2017,1,1,1,1,1,1,1,1,1,1,1,1,0,0,0,0,"VILA MARIANA",-23.5832841,-46.6296948,0
"450.000",5294,85,2,0,2,0,"condominio piazzia venezia","0",NA,NA,NA,NA,NA,NA,NA,NA,NA,NA,NA,NA,NA,NA,NA,NA,NA,NA,NA,NA,0
"623.000",8900,70,2,0,2,1,"ND","0",NA,NA,NA,NA,NA,NA,NA,NA,NA,NA,NA,NA,NA,NA,NA,NA,NA,NA,NA,NA,0
"2.500.000",9057,276,4,1,6,3,"condominio glen miller","rua castro alves, 910 . aclimacao",1991,1,1,1,1,1,0,0,1,1,1,1,1,0,0,0,0,"SE",-23.572644,-46.6336452,0
"750.000",10000,75,3,1,2,2,"condominio . le jardin aclimacao","rua almeida torres, 212 . aclimacao",2012,1,1,1,1,1,1,1,0,1,0,1,1,0,0,0,0,"SE",-23.568646,-46.627794,0
"560.000",5833,96,3,0,2,1,"ND","0",NA,NA,NA,NA,NA,NA,NA,NA,NA,NA,NA,NA,NA,NA,NA,NA,NA,NA,NA,NA,0
"2.746.671",8031,342,4,1,NA,4,"condominio diamond tower","rua castro alves, 488 . aclimacao",1992,1,1,1,1,1,1,1,1,1,0,1,1,0,0,0,1,"SE",-23.5697871,-46.6363925,0
"3.800.000",10.27,370,4,1,6,4,"condominio santa margherita","rua castro alves, 491 . aclimacao",1992,1,1,1,0,1,0,0,1,0,1,1,1,0,0,0,1,"SE",-23.5693249,-46.6361156,0
"690.000",10.147,68,2,0,1,2,"condominio urano","rua urano, 65 . aclimacao",1982,3,1,1,0,0,0,0,1,0,0,1,0,0,0,0,1,"SE",-23.5702089,-46.6363868,0
"900.000",4787,188,3,1,5,2,"condominio jardim sao fernando","rua jose getulio, 578 . aclimacao",1966,3,1,0,1,1,1,0,0,0,0,1,0,0,0,0,0,"SE",-23.5702084,-46.633289,0
"704.000",6834,103,3,1,3,0,"ND","0",NA,NA,NA,NA,NA,NA,NA,NA,NA,NA,NA,NA,NA,NA,NA,NA,NA,NA,NA,NA,0
"1.000.000",9523,105,3,1,3,1,"condominio marcela","rua loureiro da cruz, 270 . aclimacao",1980,1,1,1,0,0,1,0,1,0,0,1,1,0,0,0,0,"SE",-23.5704746,-46.6342178,0
"700.000",8433,83,2,1,2,1,"ND","0",NA,NA,NA,NA,NA,NA,NA,NA,NA,NA,NA,NA,NA,NA,NA,NA,NA,NA,NA,NA,0
"750.000",8152,92,3,0,2,0,"condominio gianicolo","rua paula ney, 457 . aclimacao",1968,1,1,1,1,1,1,1,1,1,1,1,1,0,0,0,0,"VILA MARIANA",-23.5792682,-46.6346487,0
"902.910",6071,140,2,0,3,1,"condominio santa maria","rua jose getulio, 461 . aclimacao",1954,1,1,1,1,1,1,1,1,1,1,1,1,0,0,0,0,"SE",-23.5692642,-46.6338027,0
"1.140.715",5703,200,3,1,4,3,"condominio marisa","rua castro alves, 785 . aclimacao",1983,1,1,1,0,1,0,0,0,0,0,1,1,0,0,0,0,"SE",-23.5715048,-46.6343781,0
"545.000",6812,80,3,0,2,1,"condominio edificio rodolfo klasing","rua senador felicio dos santos, 212 . aclimacao",1970,1,0,1,1,1,1,1,1,1,1,1,1,0,0,0,0,"SE",-23.5654177,-46.6342771,0
"1.100.000",5612,196,3,1,2,2,"condominio estrela polar","rua gaspar lourenco, 65 . aclimacao",1975,1,1,1,1,0,0,0,0,0,0,1,0,0,0,0,1,"VILA MARIANA",-23.5805491,-46.6351939,0
"670.000",6442,104,2,1,3,1,"condominio gomes","rua espirito santo, 218 . aclimacao",1975,5,1,1,0,1,0,0,1,0,0,1,1,0,0,0,0,"SE",-23.5684407,-46.6304156,0
"290.000",8529,34,1,0,1,0,"condominio almeida torres","rua almeida torres, 88 . aclimacao",1973,1,1,0,0,0,0,0,1,0,0,0,0,0,0,0,0,"SE",-23.5679034,-46.6288234,0
"2.500.000",16.778,149,3,1,5,2,"condominio cyrela legacy vila mariana","rua dona carolina, 60 . aclimacao",2017,1,1,1,1,1,1,1,1,1,1,1,1,0,0,0,0,"VILA MARIANA",-23.5838238,-46.6314971,0
"520.000",6933,75,2,0,1,0,"ND","rua doutor nicolau de sousa queiros 953, aclimacao",NA,NA,NA,NA,NA,NA,NA,NA,NA,NA,NA,NA,NA,NA,NA,NA,1,"VILA MARIANA",-23.5762349,-46.6356741,0
"290.000",6304,46,1,0,1,0,"condominio fujiama","rua bueno de andrade, 71 . aclimacao",1978,2,1,1,1,1,0,0,1,0,1,0,0,0,0,0,0,"SE",-23.5607497,-46.6312239,0
"1.980.000",9900,200,4,1,3,3,"condominio villa d'este","rua doutor nicolau de sousa queiros, 194 . aclimacao",1989,1,1,1,1,1,1,0,0,0,0,1,1,0,0,0,1,"VILA MARIANA",-23.57821,-46.638708,0
"1.285.000",9379,137,3,1,3,1,"condominio residencial aclimacao","rua doutor nicolau de sousa queiros, 297 . aclimacao",1973,3,1,1,1,1,1,1,1,1,1,1,1,0,0,0,1,"VILA MARIANA",-23.5788122,-46.6388122,0
"1.100.000",11.34,97,4,1,3,1,"condominio vila do carmo condominio","0",NA,NA,NA,NA,NA,NA,NA,NA,NA,NA,NA,NA,NA,NA,NA,NA,NA,NA,NA,NA,0
"350.000",7446,47,1,0,1,1,"condominio almeida torres","rua almeida torres, 88 . aclimacao",1973,1,1,0,0,0,0,0,1,0,0,0,0,0,0,0,0,"SE",-23.5679034,-46.6288234,0
"620.000",7469,83,2,1,2,1,"condominio carpareli","rua nilo, 241 . aclimacao",1967,1,1,0,0,1,0,0,1,0,0,1,0,0,0,0,1,"SE",-23.5720897,-46.6369346,0
"850.000",8500,100,3,1,2,1,"condominio luiza margarita","avenida lins de vasconcelos, 3097 . aclimacao",1986,1,1,0,0,1,0,0,0,0,0,0,0,0,0,0,1,"VILA MARIANA",-23.5881922,-46.6307287,0
"1.490.000",8612,173,3,1,4,3,"condominio residencial paraiso - monte alegre - bloco i","rua do paraiso, 701 . aclimacao",1994,3,1,1,1,1,1,1,1,1,1,1,1,0,0,0,1,"SE",-23.5746845,-46.6365589,0
"546.000",7378,74,2,1,2,0,"ND","0",NA,NA,NA,NA,NA,NA,NA,NA,NA,NA,NA,NA,NA,NA,NA,NA,NA,NA,NA,NA,0
"920.000",5139,179,3,0,3,1,"condominio jose getulio","rua jose getulio, 261 . aclimacao",1968,1,1,1,1,1,1,1,1,1,1,1,1,0,0,0,0,"SE",-23.5678418,-46.6351159,0
"692.000",9611,72,1,0,1,1,"condominio buriti","0",NA,NA,NA,NA,NA,NA,NA,NA,NA,NA,NA,NA,NA,NA,NA,NA,NA,NA,NA,NA,0
"700.000",9210,76,2,0,2,1,"ND","0",NA,NA,NA,NA,NA,NA,NA,NA,NA,NA,NA,NA,NA,NA,NA,NA,NA,NA,NA,NA,0
"1.990.545",9757,204,4,1,3,5,"ND","avenida engenheiro luiz gomes cardim sangirardi 607, aclimacao",NA,NA,NA,NA,NA,NA,NA,NA,NA,NA,NA,NA,NA,NA,NA,NA,0,"VILA MARIANA",-23.5841139,-46.6288681,0
"900.000",765,1175,3,1,2,1,"condominio maristela","rua gregorio serrao, 63 . aclimacao",1976,1,1,1,0,0,0,0,0,0,0,0,0,0,0,0,1,"VILA MARIANA",-23.5812957,-46.6360546,0
"3.200.000",10.126,316,5,1,5,5,"condominio doppio by helbor","rua guimaraes passos, 182 . aclimacao",2015,1,1,1,1,1,1,1,1,0,1,1,1,0,0,0,0,"VILA MARIANA",-23.5787451,-46.6342205,0
"470.000",10.444,45,1,0,1,0,"condominio himawari","0",NA,NA,NA,NA,NA,NA,NA,NA,NA,NA,NA,NA,NA,NA,NA,NA,NA,NA,NA,NA,0
"650.000",5000,130,3,0,2,0,"ND","rua nilo 230, aclimacao",NA,NA,NA,NA,NA,NA,NA,NA,NA,NA,NA,NA,NA,NA,NA,NA,1,"SE",-23.571849,-46.637259,0
"478.000",10.863,44,2,0,1,0,"ND","0",NA,NA,NA,NA,NA,NA,NA,NA,NA,NA,NA,NA,NA,NA,NA,NA,NA,NA,NA,NA,0
"890.000",10.348,86,2,0,1,1,"condominio estrela polar","rua gaspar lourenco, 65 . aclimacao",1975,1,1,1,1,0,0,0,0,0,0,1,0,0,0,0,1,"VILA MARIANA",-23.5805491,-46.6351939,0
"3.800.000",15.079,252,4,1,5,4,"condominio central park","rua guimaraes passos, 260 . aclimacao",2006,1,0,1,1,1,1,1,1,1,1,1,1,0,0,0,0,"VILA MARIANA",-23.5794559,-46.6336928,0
"1.000.000",12.345,81,3,1,2,2,"condominio sao pedro","rua paula ney, 357 . aclimacao",1996,1,1,1,1,1,1,1,1,0,1,1,1,0,0,0,0,"VILA MARIANA",-23.5783461,-46.6348426,0
"200.000",4255,47,1,0,1,0,"ND","0",NA,NA,NA,NA,NA,NA,NA,NA,NA,NA,NA,NA,NA,NA,NA,NA,NA,NA,NA,NA,0
"435.000",5649,77,3,0,2,0,"condominio conde de ipanema","rua muniz de sousa, 914 . aclimacao",1984,1,1,1,1,1,1,1,1,1,1,1,1,0,0,0,0,"SE",-23.5708128,-46.6280521,0
"1.600.000",8888,180,4,1,3,3,"condominio santa margherita","rua castro alves, 491 . aclimacao",1992,1,1,1,0,1,0,0,1,0,1,1,1,0,0,0,1,"SE",-23.5693249,-46.6361156,0
"1.100.000",7333,150,3,1,2,0,"condominio sao judas tadeu","rua topazio, 478 . aclimacao",1952,2,1,1,1,1,1,1,1,1,1,1,1,0,0,0,0,"SE",-23.5745145,-46.6335609,0
"1.710.170",6840,250,3,1,5,3,"condominio maria beatriz","rua castro alves, 631 . aclimacao",1982,1,1,0,0,0,0,0,0,0,0,0,1,0,0,0,0,"SE",-23.5703726,-46.6352006,0
"685.000",5708,120,1,0,2,0,"condominio ana elizabeth","rua apeninos, 990 . aclimacao",1974,1,1,0,0,0,0,0,0,0,0,1,0,0,0,0,1,"VILA MARIANA",-23.5762096,-46.6397983,0
"485.000",12.125,40,1,0,1,1,"condominio camboriu","avenida armando ferrentini, 563 . aclimacao",1979,1,1,1,0,1,0,0,0,0,0,1,0,0,0,0,1,"VILA MARIANA",-23.5757478,-46.6358439,0
"650.000",19.696,33,1,1,1,1,"condominio vn casa topazio","rua topazio, 701 . aclimacao",2016,1,1,1,1,1,1,1,1,0,0,1,1,0,0,0,0,"VILA MARIANA",-23.5763014,-46.6350121,0
"408.480",7166,57,1,0,1,0,"condominio vinicius","rua pires da mota, 514 . aclimacao",1969,1,1,1,1,1,1,1,1,1,1,1,1,0,0,0,0,"SE",-23.5667222,-46.6336882,0
"750.000",10.714,70,1,0,1,1,"condominio turandot","rua dona avelina, 118 . aclimacao",1988,2,1,0,1,0,0,0,0,0,0,1,1,0,0,0,1,"VILA MARIANA",-23.5866898,-46.6323454,0
"850.000",12.5,68,2,0,2,0,"ND","0",NA,NA,NA,NA,NA,NA,NA,NA,NA,NA,NA,NA,NA,NA,NA,NA,NA,NA,NA,NA,0
"576.006",6329,91,2,0,1,1,"condominio arauto","rua baturite, 54 . aclimacao",1972,1,1,1,0,0,0,0,0,0,0,0,0,0,0,0,0,"SE",-23.5690347,-46.6278436,0
"593.865",5998,99,2,1,2,0,"ND","0",NA,NA,NA,NA,NA,NA,NA,NA,NA,NA,NA,NA,NA,NA,NA,NA,NA,NA,NA,NA,0
"328.000",8200,40,1,0,1,1,"condominio fernanda","rua bueno de andrade, 456 . aclimacao",1989,1,1,0,0,0,0,0,0,1,0,0,0,0,0,0,0,"SE",-23.564265,-46.6319202,0
"790.000",9404,84,2,0,1,1,"condominio gardenia","rua dona brigida, 197 . aclimacao",1971,1,1,1,1,1,1,1,1,1,1,1,1,0,0,0,0,"VILA MARIANA",-23.582764,-46.6297539,0
"300.000",7894,38,1,0,1,0,"condominio fujiama","rua bueno de andrade, 71 . aclimacao",1978,2,1,1,1,1,0,0,1,0,1,0,0,0,0,0,0,"SE",-23.5607497,-46.6312239,0
"449.900",7756,58,1,0,1,0,"ND","0",NA,NA,NA,NA,NA,NA,NA,NA,NA,NA,NA,NA,NA,NA,NA,NA,NA,NA,NA,NA,0
"1.285.000",10.28,125,3,1,NA,3,"ND","0",NA,NA,NA,NA,NA,NA,NA,NA,NA,NA,NA,NA,NA,NA,NA,NA,NA,NA,NA,NA,0
"2.050.000",15.298,134,3,1,2,2,"condominio terrazzo di mariana","rua doutor pinto ferraz, 98 . aclimacao",2007,1,1,0,1,1,0,0,0,0,1,1,0,0,0,0,1,"VILA MARIANA",-23.589348,-46.6325959,0
"480.000",6400,75,2,0,2,0,"condominio lucia","rua gregorio serrao, 49 . aclimacao",1966,3,0,0,0,0,0,0,0,0,0,1,0,0,0,0,1,"VILA MARIANA",-23.5810392,-46.6362325,0
"397.000",10.447,38,1,0,1,1,"condominio barbara","avenida lins de vasconcelos, 3310 . aclimacao",1980,1,1,1,0,0,0,0,0,0,0,0,0,0,0,0,1,"VILA MARIANA",-23.5886666,-46.6327725,0
"470.000",4272,110,2,0,1,0,"ND","rua tamandare 205, aclimacao",NA,NA,NA,NA,NA,NA,NA,NA,NA,NA,NA,NA,NA,NA,NA,NA,0,"SE",-23.5613437,-46.6325584,0
"320.000",6530,49,1,0,1,0,"ND","0",NA,NA,NA,NA,NA,NA,NA,NA,NA,NA,NA,NA,NA,NA,NA,NA,NA,NA,NA,NA,0
"750.000",12.5,60,1,0,1,2,"condominio bivona","rua castro alves, 373 . aclimacao",2002,1,1,1,1,1,0,0,1,1,1,1,1,0,0,0,1,"SE",-23.5684904,-46.6369158,0
"600.000",7228,83,2,0,2,0,"condominio sao jose","0",NA,NA,NA,NA,NA,NA,NA,NA,NA,NA,NA,NA,NA,NA,NA,NA,NA,NA,NA,NA,0
"749.000",8609,87,2,0,2,1,"condominio lafer","rua domingos de morais, 1457 . aclimacao",1970,1,1,1,0,0,1,0,0,1,0,0,0,0,0,0,1,"VILA MARIANA",-23.5890328,-46.6351883,0
"550.000",6875,80,3,0,3,1,"condominio antonio jose pinto","rua paulo orozimbo, 1162 . aclimacao",1981,1,1,1,1,1,1,1,1,1,1,1,1,0,0,0,0,"SE",-23.5777323,-46.6266964,0
"449.000",7877,57,1,0,1,0,"ND","0",NA,NA,NA,NA,NA,NA,NA,NA,NA,NA,NA,NA,NA,NA,NA,NA,NA,NA,NA,NA,0
"425.500",6446,66,2,0,1,0,"condominio sandra","rua baltazar lisboa, 125 . aclimacao",1975,2,1,1,0,1,0,0,0,0,0,0,0,0,0,0,1,"VILA MARIANA",-23.5858287,-46.6339051,0
"3.700.000",11.708,316,5,1,5,5,"condominio doppio by helbor","rua guimaraes passos, 182 . aclimacao",2015,1,1,1,1,1,1,1,1,0,1,1,1,0,0,0,0,"VILA MARIANA",-23.5787451,-46.6342205,0
"1.250.000",6944,180,3,0,2,1,"condominio elza ayrosa disessa","0",NA,NA,NA,NA,NA,NA,NA,NA,NA,NA,NA,NA,NA,NA,NA,NA,NA,NA,NA,NA,0
"425.000",6071,70,2,0,1,0,"ND","rua almeida torres 108, aclimacao",NA,NA,NA,NA,NA,NA,NA,NA,NA,NA,NA,NA,NA,NA,NA,NA,0,"SE",-23.5679696,-46.6286315,0
"599.000",5445,110,2,0,2,0,"condominio saturno","rua saturno, 113 . aclimacao",1956,1,1,1,1,1,1,1,1,1,1,1,1,0,0,0,0,"SE",-23.5700068,-46.6344019,0
"599.000",4991,120,3,0,2,2,"condominio aracati","rua espirito santo, 206 . aclimacao",1969,1,1,1,1,1,1,1,1,1,1,1,1,0,0,0,0,"SE",-23.5685866,-46.6305351,0
"400.000",5797,69,2,0,1,0,"condominio maria stuart","rua conselheiro furtado, 1114 . aclimacao",1971,1,1,0,1,0,0,0,1,1,0,0,0,0,0,0,0,"SE",-23.5628762,-46.6329578,0
"470.000",6266,75,2,0,2,0,"ND","0",NA,NA,NA,NA,NA,NA,NA,NA,NA,NA,NA,NA,NA,NA,NA,NA,NA,NA,NA,NA,0
"950.000",9313,102,3,1,3,1,"condominio maria & josephina","rua correia dias, 476 . aclimacao",1978,2,1,0,0,0,0,0,1,0,1,0,0,0,0,0,1,"VILA MARIANA",-23.5769688,-46.6384991,0
"550.000",5612,98,2,0,2,0,"ND","0",NA,NA,NA,NA,NA,NA,NA,NA,NA,NA,NA,NA,NA,NA,NA,NA,NA,NA,NA,NA,0
"440.000",10.476,42,1,0,1,1,"condominio maria antonieta","rua apeninos, 471 . aclimacao",1989,1,1,1,1,0,1,0,1,0,0,1,1,0,0,0,1,"SE",-23.5716107,-46.6388375,0
"600.000",15.789,38,1,0,1,1,"condominio haus mitre vila mariana","rua paula ney, 428 . aclimacao",2021,1,1,1,1,1,1,1,1,1,0,1,1,0,0,0,1,"VILA MARIANA",-23.5792042,-46.6350378,0
"620.000",12.4,50,1,1,2,1,"ND","0",NA,NA,NA,NA,NA,NA,NA,NA,NA,NA,NA,NA,NA,NA,NA,NA,NA,NA,NA,NA,0
"400.000",12.5,32,1,0,1,0,"condominio hello vila mariana","rua gaspar lourenco, 260 . aclimacao",2021,1,1,0,1,1,1,1,1,0,1,1,1,0,0,0,1,"VILA MARIANA",-23.5822187,-46.6344025,0
"950.000",8558,111,2,1,3,0,"condominio sao judas tadeu","rua topazio, 478 . aclimacao",1952,2,1,1,1,1,1,1,1,1,1,1,1,0,0,0,0,"SE",-23.5745145,-46.6335609,0
"375.000",8522,44,1,0,1,0,"ND","0",NA,NA,NA,NA,NA,NA,NA,NA,NA,NA,NA,NA,NA,NA,NA,NA,NA,NA,NA,NA,0
"1.133.209",10.69,106,3,0,2,1,"ND","0",NA,NA,NA,NA,NA,NA,NA,NA,NA,NA,NA,NA,NA,NA,NA,NA,NA,NA,NA,NA,0
"2.800.000",10.181,275,4,1,5,5,"condominio vila dos eucaliptos","rua artur saboia, 115 . aclimacao",1995,1,1,0,0,0,0,0,0,0,0,0,1,0,0,0,1,"VILA MARIANA",-23.575474,-46.6373332,0
"407.804",6911,59,2,0,1,0,"ND","0",NA,NA,NA,NA,NA,NA,NA,NA,NA,NA,NA,NA,NA,NA,NA,NA,NA,NA,NA,NA,0
"410.000",14.192,26,1,0,1,0,"condominio haus mitre vila mariana","rua paula ney, 428 . aclimacao",2021,1,1,1,1,1,1,1,1,1,0,1,1,0,0,0,1,"VILA MARIANA",-23.5792042,-46.6350378,0
"500.000",12.82,39,1,0,1,1,"condominio . you aclimacao","rua paulo orozimbo, 715 . aclimacao",2013,1,1,1,1,1,0,0,0,1,0,1,1,0,0,0,0,"SE",-23.5739261,-46.6252499,0
"300.000",6666,45,1,0,1,1,"condominio fernanda","rua bueno de andrade, 456 . aclimacao",1989,1,1,0,0,0,0,0,0,1,0,0,0,0,0,0,0,"SE",-23.564265,-46.6319202,0
"1.700.000",10000,170,4,1,3,3,"condominio monte verde","rua do paraiso, 719 . aclimacao",1993,1,1,1,1,0,1,1,1,1,1,1,1,0,0,0,1,"SE",-23.5745979,-46.636275,0
"5.500.000",13.853,397,4,1,6,5,"ND","0",NA,NA,NA,NA,NA,NA,NA,NA,NA,NA,NA,NA,NA,NA,NA,NA,NA,NA,NA,NA,0
"965.000",8772,110,3,1,2,2,"condominio rochester","avenida da aclimacao, 193 . aclimacao",1977,1,1,0,0,1,0,0,0,0,0,1,1,0,0,0,0,"SE",-23.5683482,-46.6330482,0
"1.150.000",8455,136,4,1,4,2,"condominio saint paul de vence","rua bartolomeu de gusmao, 452 . aclimacao",1992,1,1,1,1,1,0,1,1,1,0,0,1,0,0,0,1,"VILA MARIANA",-23.5870405,-46.6317352,0
"1.225.000",18.442,61,2,1,2,1,"condominio . you prime aclimacao","rua paula ney, 119 . aclimacao",2017,1,1,1,1,1,1,1,1,1,1,1,1,0,0,0,0,"VILA MARIANA",-23.5766556,-46.6342511,0
"1.140.000",14.43,79,2,0,2,0,"ND","rua aruja 40, aclimacao",NA,NA,NA,NA,NA,NA,NA,NA,NA,NA,NA,NA,NA,NA,NA,NA,1,"VILA MARIANA",-23.5760191,-46.6390779,0
"1.472.000",10.514,140,3,1,5,3,"condominio monte verde","rua do paraiso, 719 . aclimacao",1993,1,1,1,1,0,1,1,1,1,1,1,1,0,0,0,1,"SE",-23.5745979,-46.636275,0
"481.505",10.7,45,1,0,1,0,"condominio la vestale","0",NA,NA,NA,NA,NA,NA,NA,NA,NA,NA,NA,NA,NA,NA,NA,NA,NA,NA,NA,NA,0
"508.198",5293,96,2,0,2,1,"condominio senador","rua senador felicio dos santos, 230 . aclimacao",1977,1,1,1,1,1,1,1,1,1,1,1,1,0,0,0,0,"SE",-23.5655434,-46.6343713,0
"680.000",7222,90,3,0,3,2,"condominio fernanda","rua rodrigo claudio, 253 . aclimacao",1976,2,1,1,0,0,0,1,0,0,1,0,0,0,0,0,0,"SE",-23.5722014,-46.635832,0
"3.200.000",5342,599,3,1,6,4,"condominio porto rotondo","rua jupiter, 265 . aclimacao",1989,1,1,1,1,0,0,0,0,0,0,1,1,0,0,0,0,"SE",-23.5731408,-46.6352237,0
"980.000",14,70,2,1,2,2,"condominio latitude aclimacao","rua dona brigida, 265 . aclimacao",2017,1,1,1,1,1,1,1,1,1,1,1,1,0,0,0,0,"VILA MARIANA",-23.5832841,-46.6296948,0
"1.550.000",8611,180,3,1,4,3,"condominio ana lucia","rua castro alves, 601 . aclimacao",1994,1,1,0,0,0,0,0,0,0,0,1,1,0,0,0,0,"SE",-23.5701749,-46.6353768,0
"1.011.000",8946,113,3,1,3,2,"condominio santorine","rua dona avelina, 47 . aclimacao",2000,1,1,0,1,1,1,1,1,0,1,1,1,0,0,0,1,"VILA MARIANA",-23.5866383,-46.6332656,0
"800.000",6779,118,3,0,2,1,"condominio arauto","rua baturite, 54 . aclimacao",1972,1,1,1,0,0,0,0,0,0,0,0,0,0,0,0,0,"SE",-23.5690347,-46.6278436,0
"1.214.400",9954,122,4,1,4,2,"condominio agua marinha","rua dona avelina, 105 . aclimacao",2007,1,1,0,0,1,0,0,0,0,0,1,1,0,0,0,1,"VILA MARIANA",-23.5861679,-46.6328635,0
"480.000",6857,70,2,0,1,1,"ND","0",NA,NA,NA,NA,NA,NA,NA,NA,NA,NA,NA,NA,NA,NA,NA,NA,NA,NA,NA,NA,0
"1.200.000",6060,198,3,1,3,3,"condominio honduras","rua loureiro da cruz, 370 . aclimacao",1976,1,1,1,1,1,1,1,1,1,1,1,1,0,0,0,0,"SE",-23.5714003,-46.6335774,0
"2.181.000",14.785,140,3,1,5,2,"ND","0",NA,NA,NA,NA,NA,NA,NA,NA,NA,NA,NA,NA,NA,NA,NA,NA,NA,NA,NA,NA,0
"702.820",7321,96,3,0,1,1,"ND","0",NA,NA,NA,NA,NA,NA,NA,NA,NA,NA,NA,NA,NA,NA,NA,NA,NA,NA,NA,NA,0
"1.300.000",8666,150,3,1,3,2,"condominio residencial aclimacao","rua doutor nicolau de sousa queiros, 297 . aclimacao",1973,3,1,1,1,1,1,1,1,1,1,1,1,0,0,0,1,"VILA MARIANA",-23.5788122,-46.6388122,0
"3.690.037",9225,400,4,1,5,2,"condominio andrea chenier","rua espirito santo, 190 . aclimacao",1967,1,1,1,1,1,1,1,1,1,1,1,1,0,0,0,0,"SE",-23.5685822,-46.6307581,0
"260.800",8693,30,1,0,1,0,"condominio paulo vi","0",NA,NA,NA,NA,NA,NA,NA,NA,NA,NA,NA,NA,NA,NA,NA,NA,NA,NA,NA,NA,0
"3.000.000",14.423,208,4,1,4,3,"condominio reference by helbor","rua topazio, 863 . aclimacao",2015,1,1,0,1,1,1,1,1,0,1,1,1,0,0,0,0,"VILA MARIANA",-23.5771905,-46.6354833,0
"429.000",13,33,1,0,1,0,"condominio hello vila mariana","rua gaspar lourenco, 260 . aclimacao",2021,1,1,0,1,1,1,1,1,0,1,1,1,0,0,0,1,"VILA MARIANA",-23.5822187,-46.6344025,0
"3.200.000",15.384,208,3,1,4,3,"condominio reference by helbor","rua topazio, 863 . aclimacao",2015,1,1,0,1,1,1,1,1,0,1,1,1,0,0,0,0,"VILA MARIANA",-23.5771905,-46.6354833,0
"1.250.000",12.5,100,3,1,3,2,"condominio residencial paraiso - monte alegre - bloco i","rua do paraiso, 701 . aclimacao",1994,3,1,1,1,1,1,1,1,1,1,1,1,0,0,0,1,"SE",-23.5746845,-46.6365589,0
"857.345",9318,92,3,0,2,1,"ND","0",NA,NA,NA,NA,NA,NA,NA,NA,NA,NA,NA,NA,NA,NA,NA,NA,NA,NA,NA,NA,0
"500.000",7575,66,2,0,2,1,"ND","0",NA,NA,NA,NA,NA,NA,NA,NA,NA,NA,NA,NA,NA,NA,NA,NA,NA,NA,NA,NA,0
"260.000",7428,35,1,0,1,0,"condominio lohengrin","rua jose getulio, 217 . aclimacao",1966,1,1,1,1,1,1,1,1,1,1,1,1,0,0,0,0,"SE",-23.5675631,-46.6353815,0
"1.400.000",11.666,120,3,1,2,2,"condominio conjunto residencial paraiso","rua artur saboia, 367 . aclimacao",1992,2,1,0,1,1,1,1,1,0,1,1,1,0,0,0,1,"VILA MARIANA",-23.5775816,-46.6373116,0
"1.550.000",12.916,120,3,1,4,3,"condominio agua marinha","rua dona avelina, 105 . aclimacao",2007,1,1,0,0,1,0,0,0,0,0,1,1,0,0,0,1,"VILA MARIANA",-23.5861679,-46.6328635,0
"745.000",9312,80,2,0,2,2,"condominio tosca","rua paula ney, 477 . aclimacao",1961,1,1,0,0,0,0,0,0,0,0,1,0,0,0,0,0,"VILA MARIANA",-23.5794289,-46.6345856,0
"420.000",4421,95,2,0,1,0,"ND","0",NA,NA,NA,NA,NA,NA,NA,NA,NA,NA,NA,NA,NA,NA,NA,NA,NA,NA,NA,NA,0
"235.000",6714,35,1,0,1,0,"condominio tamandare","rua tamandare, 997 . aclimacao",1965,1,1,1,1,1,1,1,1,1,1,1,1,0,0,0,1,"SE",-23.5669263,-46.6373347,0
"478.400",8248,58,2,0,1,1,"condominio plaza","rua conselheiro furtado, 1299 . aclimacao",1994,1,1,0,0,1,0,0,0,0,0,0,0,0,0,0,0,"SE",-23.5646112,-46.6323026,0
"1.200.000",7100,169,3,1,3,1,"condominio urania","rua urano, 304 . aclimacao",1976,1,1,1,0,0,0,0,0,0,0,0,0,0,0,0,0,"SE",-23.5691222,-46.634485,0
"2.350.000",14.329,164,3,1,4,3,"ND","0",NA,NA,NA,NA,NA,NA,NA,NA,NA,NA,NA,NA,NA,NA,NA,NA,NA,NA,NA,NA,0
"575.955",9930,58,2,0,2,1,"ND","0",NA,NA,NA,NA,NA,NA,NA,NA,NA,NA,NA,NA,NA,NA,NA,NA,NA,NA,NA,NA,0
"736.000",5661,130,2,0,2,1,"condominio santa maria","rua jose getulio, 461 . aclimacao",1954,1,1,1,1,1,1,1,1,1,1,1,1,0,0,0,0,"SE",-23.5692642,-46.6338027,0
"1.600.000",11.51,139,3,1,4,2,"condominio village d oro","rua bartolomeu de gusmao, 430 . aclimacao",1998,1,0,0,0,1,1,1,1,0,1,1,1,0,0,0,1,"VILA MARIANA",-23.5868844,-46.6318701,0
"307.000",7675,40,1,0,1,0,"condominio samambaia","rua pires da mota, 277 . aclimacao",1980,1,1,1,1,1,1,1,1,1,1,1,1,0,0,0,0,"SE",-23.5656257,-46.6316062,0
"350.000",5223,67,1,0,1,0,"condominio capri","rua conselheiro furtado, 1215 . aclimacao",1976,1,1,1,1,1,1,1,1,1,1,1,1,0,0,0,0,"SE",-23.5638572,-46.632283,0
"620.000",12.916,48,2,1,1,1,"condominio four seasons park","rua loureiro da cruz, 354 . aclimacao",1998,1,1,1,1,1,1,0,1,1,0,1,1,0,0,0,0,"SE",-23.5713688,-46.6338203,0
"1.750.000",6386,274,3,1,5,3,"condominio paco de sorrento","rua castro alves, 908 . aclimacao",1986,1,1,1,1,1,0,0,0,1,0,1,1,0,0,0,0,"SE",-23.5725321,-46.6337852,0
"700.000",8750,80,2,0,1,1,"condominio cecy","rua francisco cruz, 85 . aclimacao",1968,1,1,1,1,1,1,1,1,1,1,1,1,0,0,0,1,"VILA MARIANA",-23.5907203,-46.6344653,0
"2.790.000",13.743,203,3,1,4,3,"condominio agua marinha","rua dona avelina, 105 . aclimacao",2007,1,1,0,0,1,0,0,0,0,0,1,1,0,0,0,1,"VILA MARIANA",-23.5861679,-46.6328635,0
"283.500",6750,42,1,0,1,0,"condominio paulo vi","0",NA,NA,NA,NA,NA,NA,NA,NA,NA,NA,NA,NA,NA,NA,NA,NA,NA,NA,NA,NA,0
"390.000",16.25,24,1,0,1,0,"ND","0",NA,NA,NA,NA,NA,NA,NA,NA,NA,NA,NA,NA,NA,NA,NA,NA,NA,NA,NA,NA,0
"320.000",6274,51,1,0,1,0,"ND","0",NA,NA,NA,NA,NA,NA,NA,NA,NA,NA,NA,NA,NA,NA,NA,NA,NA,NA,NA,NA,0
"1.350.000",19.014,71,2,1,2,2,"condominio . you prime aclimacao","rua paula ney, 119 . aclimacao",2017,1,1,1,1,1,1,1,1,1,1,1,1,0,0,0,0,"VILA MARIANA",-23.5766556,-46.6342511,0
"490.000",8750,56,2,0,1,1,"condominio jardim do carmo","rua batista do carmo, 33 . aclimacao",1974,1,1,0,0,0,0,0,0,0,0,1,0,0,0,0,0,"SE",-23.5757086,-46.6268965,0
"1.240.000",6391,194,3,1,4,2,"condominio camila","rua loureiro da cruz, 149 . aclimacao",1983,1,1,1,0,0,0,1,0,0,1,0,0,0,0,0,0,"SE",-23.5696886,-46.6346357,0
"585.500",10.842,54,2,0,1,1,"condominio la favorita","rua apeninos, 539 . aclimacao",1970,1,1,1,1,1,1,1,1,1,1,1,1,0,0,0,1,"SE",-23.5721634,-46.6390121,0
"630.000",8181,77,2,1,2,1,"ND","0",NA,NA,NA,NA,NA,NA,NA,NA,NA,NA,NA,NA,NA,NA,NA,NA,NA,NA,NA,NA,0
"350.000",7608,46,1,0,1,0,"condominio sandra","rua baltazar lisboa, 125 . aclimacao",1975,2,1,1,0,1,0,0,0,0,0,0,0,0,0,0,1,"VILA MARIANA",-23.5858287,-46.6339051,0
"640.000",10000,64,2,0,1,1,"condominio adriana","0",NA,NA,NA,NA,NA,NA,NA,NA,NA,NA,NA,NA,NA,NA,NA,NA,NA,NA,NA,NA,0
"435.000",11.756,37,1,0,1,1,"ND","0",NA,NA,NA,NA,NA,NA,NA,NA,NA,NA,NA,NA,NA,NA,NA,NA,NA,NA,NA,NA,0
"540.000",11.25,48,1,1,1,1,"condominio four seasons park","rua loureiro da cruz, 354 . aclimacao",1998,1,1,1,1,1,1,0,1,1,0,1,1,0,0,0,0,"SE",-23.5713688,-46.6338203,0
"1.104.000",17.523,63,1,1,2,2,"condominio all aclimacao","rua paula ney, 100 . aclimacao",2016,2,1,1,1,1,1,0,1,1,1,1,1,0,0,0,0,"VILA MARIANA",-23.5761772,-46.6342771,0
"2.300.000",8214,280,3,1,4,4,"condominio arvoredo","0",NA,NA,NA,NA,NA,NA,NA,NA,NA,NA,NA,NA,NA,NA,NA,NA,NA,NA,NA,NA,0
"379.000",7580,50,2,0,1,0,"condominio caetes","rua jose getulio, 130 . aclimacao",1968,1,1,1,1,1,1,1,1,1,1,1,1,0,0,0,1,"SE",-23.5672655,-46.6360318,0
"490.000",6621,74,2,0,2,0,"ND","0",NA,NA,NA,NA,NA,NA,NA,NA,NA,NA,NA,NA,NA,NA,NA,NA,NA,NA,NA,NA,0
"387.000",5776,67,2,0,1,0,"condominio capri","rua conselheiro furtado, 1215 . aclimacao",1976,1,1,1,1,1,1,1,1,1,1,1,1,0,0,0,0,"SE",-23.5638572,-46.632283,0
"450.000",6716,67,2,0,1,0,"condominio capri","rua conselheiro furtado, 1215 . aclimacao",1976,1,1,1,1,1,1,1,1,1,1,1,1,0,0,0,0,"SE",-23.5638572,-46.632283,0
"420.000",7777,54,2,0,1,0,"condominio samambaia","rua pires da mota, 277 . aclimacao",1980,1,1,1,1,1,1,1,1,1,1,1,1,0,0,0,0,"SE",-23.5656257,-46.6316062,0
"370.000",11.562,32,1,0,1,0,"condominio hello vila mariana","rua gaspar lourenco, 260 . aclimacao",2021,1,1,0,1,1,1,1,1,0,1,1,1,0,0,0,1,"VILA MARIANA",-23.5822187,-46.6344025,0
"406.000",6059,67,2,0,1,0,"condominio capri","rua conselheiro furtado, 1215 . aclimacao",1976,1,1,1,1,1,1,1,1,1,1,1,1,0,0,0,0,"SE",-23.5638572,-46.632283,0
"480.000",5714,84,2,0,2,0,"ND","0",NA,NA,NA,NA,NA,NA,NA,NA,NA,NA,NA,NA,NA,NA,NA,NA,NA,NA,NA,NA,0
"466.400",10.364,45,1,0,1,1,"ND","0",NA,NA,NA,NA,NA,NA,NA,NA,NA,NA,NA,NA,NA,NA,NA,NA,NA,NA,NA,NA,0
"689.000",18.131,38,1,0,1,1,"condominio haus mitre vila mariana","rua paula ney, 428 . aclimacao",2021,1,1,1,1,1,1,1,1,1,0,1,1,0,0,0,1,"VILA MARIANA",-23.5792042,-46.6350378,0
"1.150.000",23,50,1,1,2,1,"mariana","rua gregorio serrao, 260 . aclimacao",2021,1,1,1,1,1,1,1,1,1,1,1,1,0,0,0,NA,NA,NA,NA,0
"643.000",16.487,39,1,0,1,1,"ND","0",NA,NA,NA,NA,NA,NA,NA,NA,NA,NA,NA,NA,NA,NA,NA,NA,NA,NA,NA,NA,0
"770.000",5579,138,3,1,2,0,"condominio turandot","0",NA,NA,NA,NA,NA,NA,NA,NA,NA,NA,NA,NA,NA,NA,NA,NA,NA,NA,NA,NA,0
"800.000",16.326,49,1,1,2,1,"condominio all aclimacao","rua paula ney, 100 . aclimacao",2016,2,1,1,1,1,1,0,1,1,1,1,1,0,0,0,0,"VILA MARIANA",-23.5761772,-46.6342771,0
"560.000",5714,98,2,0,2,0,"ND","0",NA,NA,NA,NA,NA,NA,NA,NA,NA,NA,NA,NA,NA,NA,NA,NA,NA,NA,NA,NA,0
"395.000",16.458,24,1,1,1,0,"ND","0",NA,NA,NA,NA,NA,NA,NA,NA,NA,NA,NA,NA,NA,NA,NA,NA,NA,NA,NA,NA,0
"550.000",6321,87,2,0,2,0,"condominio guaramirim","rua topazio, 894 . aclimacao",1960,1,1,1,1,1,1,1,1,1,1,1,1,0,0,0,1,"VILA MARIANA",-23.5777244,-46.6357867,0
"640.000",16.842,38,1,0,1,1,"condominio haus mitre vila mariana","rua paula ney, 428 . aclimacao",2021,1,1,1,1,1,1,1,1,1,0,1,1,0,0,0,1,"VILA MARIANA",-23.5792042,-46.6350378,0
"680.000",6800,100,2,0,2,0,"ND","0",NA,NA,NA,NA,NA,NA,NA,NA,NA,NA,NA,NA,NA,NA,NA,NA,NA,NA,NA,NA,0
"1.380.000",10.072,137,3,1,2,1,"condominio residencial aclimacao","rua doutor nicolau de sousa queiros, 297 . aclimacao",1973,3,1,1,1,1,1,1,1,1,1,1,1,0,0,0,1,"VILA MARIANA",-23.5788122,-46.6388122,0
"2.600.000",8125,320,4,1,5,4,"condominio green garden","rua doutor joao maia, 170 . aclimacao",1997,1,1,1,1,1,1,1,1,0,1,1,1,0,0,0,0,"SE",-23.5753662,-46.6319534,0
"395.000",17.173,23,1,1,1,0,"ND","0",NA,NA,NA,NA,NA,NA,NA,NA,NA,NA,NA,NA,NA,NA,NA,NA,NA,NA,NA,NA,0
"1.012.000",10.12,100,3,1,3,1,"condominio pocos de caldas","rua doutor neto de araujo, 163 . aclimacao",1991,1,1,1,1,1,1,1,1,1,1,1,1,0,0,0,1,"VILA MARIANA",-23.5868914,-46.6331625,0
"1.000.000",6250,160,3,1,2,1,"condominio santa barbara","rua batista caetano, 79 . aclimacao",1970,1,1,1,1,1,1,1,1,1,1,1,1,0,0,0,0,"SE",-23.577712,-46.6277983,0
"4.500.000",16.544,272,4,1,5,6,"ND","0",NA,NA,NA,NA,NA,NA,NA,NA,NA,NA,NA,NA,NA,NA,NA,NA,NA,NA,NA,NA,0
"1.100.000",14.666,75,2,1,2,1,"condominio east side","rua apeninos, 800 . aclimacao",2007,1,1,1,1,1,1,1,1,1,1,1,1,0,0,0,1,"VILA MARIANA",-23.5740708,-46.6396517,0
"1.270.000",16.71,76,2,1,2,3,"condominio modern life vila mariana","rua gaspar lourenco, 95 . aclimacao",2015,1,1,1,1,1,1,1,1,1,1,1,1,0,0,0,1,"VILA MARIANA",-23.5806927,-46.6348991,0
"320.000",10000,32,1,0,1,0,"ND","0",NA,NA,NA,NA,NA,NA,NA,NA,NA,NA,NA,NA,NA,NA,NA,NA,NA,NA,NA,NA,0
"590.000",12.553,47,2,0,1,0,"ND","0",NA,NA,NA,NA,NA,NA,NA,NA,NA,NA,NA,NA,NA,NA,NA,NA,NA,NA,NA,NA,0
"850.000",26.562,32,1,0,1,1,"condominio mercure apt saint lawrence","rua vergueiro, 1661 . aclimacao",2000,1,1,0,0,1,0,0,1,0,0,0,1,0,0,0,1,"VILA MARIANA",-23.5768926,-46.6405314,0
"401.903",5824,69,2,0,1,1,"condominio maria stuart","rua conselheiro furtado, 1114 . aclimacao",1971,1,1,0,1,0,0,0,1,1,0,0,0,0,0,0,0,"SE",-23.5628762,-46.6329578,0
"432.000",10.046,43,1,0,1,0,"condominio machado de assis","0",NA,NA,NA,NA,NA,NA,NA,NA,NA,NA,NA,NA,NA,NA,NA,NA,NA,NA,NA,NA,0
"450.000",14.516,31,1,0,1,0,"condominio hello vila mariana","rua gaspar lourenco, 260 . aclimacao",2021,1,1,0,1,1,1,1,1,0,1,1,1,0,0,0,1,"VILA MARIANA",-23.5822187,-46.6344025,0
"1.350.000",9000,150,3,1,2,1,"condominio juliana","rua saturno, 41 . aclimacao",1983,1,1,1,1,1,1,1,1,0,1,1,1,0,0,0,0,"SE",-23.5700931,-46.6348237,0
"915.000",7887,116,3,1,2,1,"condominio jatoba","rua urano, 9 . aclimacao",1984,1,1,1,0,1,1,1,1,0,1,1,1,0,0,0,1,"SE",-23.5705178,-46.6367867,0
"303.500",5726,53,1,0,1,0,"ND","0",NA,NA,NA,NA,NA,NA,NA,NA,NA,NA,NA,NA,NA,NA,NA,NA,NA,NA,NA,NA,0
"470.000",16,30,1,0,1,0,"condominio haus mitre vila mariana","rua paula ney, 428 . aclimacao",2021,1,1,1,1,1,1,1,1,1,0,1,1,0,0,0,1,"VILA MARIANA",-23.5792042,-46.6350378,0
"903.000",11.148,81,2,1,3,2,"condominio sao pedro","rua paula ney, 357 . aclimacao",1996,1,1,1,1,1,1,1,1,0,1,1,1,0,0,0,0,"VILA MARIANA",-23.5783461,-46.6348426,0
"625.000",13.888,45,2,1,2,1,"condominio four seasons park","rua loureiro da cruz, 354 . aclimacao",1998,1,1,1,1,1,1,0,1,1,0,1,1,0,0,0,0,"SE",-23.5713688,-46.6338203,0
"450.000",12.162,37,1,0,1,1,"condominio dom joao carlos","rua carlos petit, 232 . aclimacao",1985,1,1,1,0,0,0,0,1,1,0,0,0,0,0,0,0,"VILA MARIANA",-23.5841238,-46.6349158,0
"850.000",9550,89,3,1,2,1,"condominio parc modernita","0",NA,NA,NA,NA,NA,NA,NA,NA,NA,NA,NA,NA,NA,NA,NA,NA,NA,NA,NA,NA,0
"294.400",9496,31,1,0,1,1,"condominio jardin etoile","rua tamandare, 1029 . aclimacao",1990,1,1,1,1,1,1,0,1,1,1,1,1,0,0,0,1,"SE",-23.5675307,-46.6375692,0
"600.000",5978,92,2,1,1,0,"condominio benhur","0",NA,NA,NA,NA,NA,NA,NA,NA,NA,NA,NA,NA,NA,NA,NA,NA,NA,NA,NA,NA,0
"1.950.000",8666,225,4,1,3,3,"condominio adriana","rua castro alves, 806 . aclimacao",1983,1,1,0,1,0,0,0,1,0,0,1,1,0,0,0,0,"SE",-23.5718487,-46.6344652,0
"480.000",12.617,35,NA,0,1,1,"condominio dom joao carlos","rua carlos petit, 232 . aclimacao",1985,1,1,1,0,0,0,0,1,1,0,0,0,0,0,0,0,"VILA MARIANA",-23.5841238,-46.6349158,0
"590.000",9833,60,2,0,1,1,"condominio antonio jose pinto","rua paulo orozimbo, 1162 . aclimacao",1981,1,1,1,1,1,1,1,1,1,1,1,1,0,0,0,0,"SE",-23.5777323,-46.6266964,0
"410.000",14.642,28,1,0,1,1,"condominio . code aclimacao","rua bueno de andrade, 662 . aclimacao",2016,1,1,1,1,1,1,1,1,0,1,1,1,0,0,0,0,"SE",-23.5662563,-46.6312868,0
"360.000",13.333,27,1,0,1,0,"condominio haus mitre vila mariana","rua paula ney, 428 . aclimacao",2021,1,1,1,1,1,1,1,1,1,0,1,1,0,0,0,1,"VILA MARIANA",-23.5792042,-46.6350378,0
"689.000",9842,70,2,0,1,1,"condominio ariane","rua paula ney, 381 . aclimacao",1966,1,1,1,1,1,1,1,1,1,1,1,1,0,0,0,0,"VILA MARIANA",-23.5786525,-46.6350823,0
"800.000",7476,107,3,0,2,1,"condominio flavia","rua rodrigo claudio, 237 . aclimacao",1976,1,1,0,0,0,0,1,0,0,0,0,0,0,0,0,0,"SE",-23.5720663,-46.6358334,0
"1.170.000",15.194,77,2,1,2,2,"condominio vn casa topazio","rua topazio, 701 . aclimacao",2016,1,1,1,1,1,1,1,1,0,0,1,1,0,0,0,0,"VILA MARIANA",-23.5763014,-46.6350121,0
"855.000",3214,266,3,0,2,1,"ND","0",NA,NA,NA,NA,NA,NA,NA,NA,NA,NA,NA,NA,NA,NA,NA,NA,NA,NA,NA,NA,0
"235.000",5595,42,1,0,1,0,"condominio almeida torres","rua almeida torres, 88 . aclimacao",1973,1,1,0,0,0,0,0,1,0,0,0,0,0,0,0,0,"SE",-23.5679034,-46.6288234,0
"618.000",9809,63,2,0,2,1,"condominio aruja","rua doutor neto de araujo, 187 . aclimacao",1989,1,1,0,1,0,0,0,1,0,0,1,0,0,0,0,1,"VILA MARIANA",-23.586965,-46.6328988,0
"1.596.000",14.378,111,3,1,3,2,"condominio new parker","rua almeida torres, 141 . aclimacao",2015,3,1,1,1,1,1,1,1,1,1,1,1,0,0,0,0,"SE",-23.5683359,-46.6276578,0
"680.000",5573,122,4,1,2,1,"ND","0",NA,NA,NA,NA,NA,NA,NA,NA,NA,NA,NA,NA,NA,NA,NA,NA,NA,NA,NA,NA,0
"535.000",11.63,46,1,0,1,0,"condominio hello vila mariana","rua gaspar lourenco, 260 . aclimacao",2021,1,1,0,1,1,1,1,1,0,1,1,1,0,0,0,1,"VILA MARIANA",-23.5822187,-46.6344025,0
"1.400.000",7821,179,4,1,3,1,"condominio . parque da aclimacao","rua castro alves, 654 . aclimacao",1956,2,1,1,1,1,1,1,1,0,1,1,1,0,0,0,0,"SE",-23.5713464,-46.63488,0
"2.450.000",8166,300,4,1,4,4,"condominio arvoredo","0",NA,NA,NA,NA,NA,NA,NA,NA,NA,NA,NA,NA,NA,NA,NA,NA,NA,NA,NA,NA,0
"1.065.000",15.661,68,2,1,2,1,"condominio up side condominium club ","0",NA,NA,NA,NA,NA,NA,NA,NA,NA,NA,NA,NA,NA,NA,NA,NA,NA,NA,NA,NA,0
"3.000.000",16.393,183,3,1,3,4,"condominio retrato paulista","rua nilo, 170 . aclimacao",2017,1,1,1,1,1,1,1,1,1,1,1,1,0,0,0,1,"SE",-23.5714292,-46.6375001,0
"750.000",7731,97,2,0,1,1,"ND","0",NA,NA,NA,NA,NA,NA,NA,NA,NA,NA,NA,NA,NA,NA,NA,NA,NA,NA,NA,NA,0
"850.000",26.562,32,1,0,1,1,"condominio mercure apt saint lawrence","rua vergueiro, 1661 . aclimacao",2000,1,1,0,0,1,0,0,1,0,0,0,1,0,0,0,1,"VILA MARIANA",-23.5768926,-46.6405314,0
"180.000",4500,40,1,1,1,0,"condominio paulo vi","0",NA,NA,NA,NA,NA,NA,NA,NA,NA,NA,NA,NA,NA,NA,NA,NA,NA,NA,NA,NA,0
"245.000",7656,32,1,0,1,0,"ND","0",NA,NA,NA,NA,NA,NA,NA,NA,NA,NA,NA,NA,NA,NA,NA,NA,NA,NA,NA,NA,0
"850.000",26.562,32,1,0,1,1,"condominio mercure apt saint lawrence","rua vergueiro, 1661 . aclimacao",2000,1,1,0,0,1,0,0,1,0,0,0,1,0,0,0,1,"VILA MARIANA",-23.5768926,-46.6405314,0
"586.000",9301,63,2,0,2,1,"condominio aruja","rua doutor neto de araujo, 187 . aclimacao",1989,1,1,0,1,0,0,0,1,0,0,1,0,0,0,0,1,"VILA MARIANA",-23.586965,-46.6328988,0
"586.000",7610,77,2,0,1,1,"condominio cecy","rua francisco cruz, 85 . aclimacao",1968,1,1,1,1,1,1,1,1,1,1,1,1,0,0,0,1,"VILA MARIANA",-23.5907203,-46.6344653,0
"690.000",6634,104,3,1,2,0,"condominio sao jose","0",NA,NA,NA,NA,NA,NA,NA,NA,NA,NA,NA,NA,NA,NA,NA,NA,NA,NA,NA,NA,0
"720.000",8181,88,3,1,2,2,"condominio montjuic plaza","rua pantojo, 917 . agua rasa",1999,1,1,1,1,1,1,1,1,1,1,1,1,0,0,0,0,"MOOCA",-23.5601936,-46.5684228,0
"992.702",10.234,97,3,1,3,2,"ND","0",NA,NA,NA,NA,NA,NA,NA,NA,NA,NA,NA,NA,NA,NA,NA,NA,NA,NA,NA,NA,0
"560.000",7368,76,3,1,2,2,"condominio horizons","rua joao teixeira da silva, 415 . agua rasa",2009,5,1,1,1,1,1,1,1,1,1,1,1,0,0,0,0,"MOOCA",-23.564987,-46.5624821,0
"987.210",7367,134,3,1,4,2,"ND","0",NA,NA,NA,NA,NA,NA,NA,NA,NA,NA,NA,NA,NA,NA,NA,NA,NA,NA,NA,NA,0
"410.000",6833,60,2,0,2,2,"condominio mabel","rua piracununga, 681 . agua rasa",1986,1,1,1,0,1,1,0,1,0,1,1,1,0,0,0,0,"MOOCA",-23.5626197,-46.5777323,0
"601.110",8587,70,3,1,1,2,"condominio max haus af","rua analia franco, 30 . agua rasa",2010,2,1,1,1,1,1,1,1,0,1,1,1,0,0,0,0,"MOOCA",-23.5569203,-46.5727288,0
"640.000",7272,88,2,1,2,2,"ND","0",NA,NA,NA,NA,NA,NA,NA,NA,NA,NA,NA,NA,NA,NA,NA,NA,NA,NA,NA,NA,0
"463.939",7137,65,2,0,2,1,"condominio paraiso","rua sebastiao barbosa, 104 . agua rasa",1980,1,1,0,1,0,1,0,0,0,0,0,0,0,0,0,0,"MOOCA",-23.5532381,-46.5745231,0
"480.000",6400,75,3,1,3,1,"condominio ravena","rua do acre, 542 . agua rasa",1993,1,1,1,1,1,1,0,1,0,1,1,0,0,0,0,0,"MOOCA",-23.55872,-46.5807224,0
"400.169",6252,64,2,0,1,1,"condominio clos de la roche","rua jaboticabal, 71 . agua rasa",2004,1,1,1,1,1,1,1,1,1,1,1,1,0,0,0,0,"MOOCA",-23.5599391,-46.5823004,0
"550.000",6547,84,2,1,3,1,"ND","0",NA,NA,NA,NA,NA,NA,NA,NA,NA,NA,NA,NA,NA,NA,NA,NA,NA,NA,NA,NA,0
"1.080.000",7200,150,3,1,3,3,"condominio boulevard perez","rua jaboticabal, 530 . agua rasa",1999,1,1,0,1,1,1,1,1,0,1,1,1,0,0,0,0,"MOOCA",-23.5616309,-46.5783843,0
"665.000",6855,97,3,1,4,2,"condominio vale das palmas ","avenida sapopemba, 2534 . agua rasa",1981,4,1,1,0,1,1,1,1,1,1,1,1,0,0,0,0,"MOOCA",-23.5738077,-46.5643337,0
"600.000",7594,79,3,1,2,2,"ND","0",NA,NA,NA,NA,NA,NA,NA,NA,NA,NA,NA,NA,NA,NA,NA,NA,NA,NA,NA,NA,0
"620.000",7469,83,4,1,3,2,"condominio style vivre","rua agua rasa, 83 . agua rasa",2002,1,1,1,0,1,1,1,1,0,1,1,1,0,0,0,0,"MOOCA",-23.5564577,-46.576122,0
"650.000",10.655,61,2,1,2,1,"condominio cotes du rhone","avenida vereador abel ferreira, 1950 . agua rasa",2002,3,1,1,1,1,1,1,1,1,1,1,1,0,0,0,0,"MOOCA",-23.564187,-46.5615776,0
"680.000",NA,NA,NA,NA,NA,NA,NA,"0",NA,NA,NA,NA,NA,NA,NA,NA,NA,NA,NA,NA,NA,NA,NA,NA,NA,NA,NA,NA,0
"1.070.000",12.588,85,3,1,2,2,"condominio magnifico mooca","rua florianopolis, 575 . agua rasa",2017,1,1,0,1,1,1,1,1,0,1,1,1,0,0,0,0,"MOOCA",-23.5653797,-46.584262,0
"1.100.000",8870,124,3,1,2,2,"condominio montemagno club","avenida montemagno, 501 . agua rasa",2011,4,1,1,1,1,1,1,1,1,1,1,1,0,0,0,0,"MOOCA",-23.566403,-46.5582354,0
"490.000",6621,74,3,1,2,2,"ND","0",NA,NA,NA,NA,NA,NA,NA,NA,NA,NA,NA,NA,NA,NA,NA,NA,NA,NA,NA,NA,0
"930.000",7440,125,3,1,3,2,"condominio iporanga","rua da meacao, 144 . agua rasa",1992,1,1,1,1,1,1,0,1,0,1,1,1,0,0,0,0,"ARICANDUVA-FORMOSA-CARRAO",-23.5555929,-46.5691826,0
"497.000",6291,79,2,1,3,1,"ND","0",NA,NA,NA,NA,NA,NA,NA,NA,NA,NA,NA,NA,NA,NA,NA,NA,NA,NA,NA,NA,0
"1.084.088",7634,142,3,1,3,2,"condominio maison gledson","rua da mooca, 4738 . agua rasa",1994,1,1,1,1,1,1,1,0,1,1,1,1,0,0,0,0,"MOOCA",-23.5619758,-46.5803741,0
"700.000",8235,85,3,1,2,2,"ND","0",NA,NA,NA,NA,NA,NA,NA,NA,NA,NA,NA,NA,NA,NA,NA,NA,NA,NA,NA,NA,0
"450.000",7142,63,3,1,2,1,"condominio hortencia vila ema ","rua domingos afonso, 460 . agua rasa",2011,1,1,1,1,1,1,1,1,1,1,1,1,0,0,0,0,"MOOCA",-23.5780764,-46.5628961,0
"835.810",7331,114,4,1,5,3,"ND","0",NA,NA,NA,NA,NA,NA,NA,NA,NA,NA,NA,NA,NA,NA,NA,NA,NA,NA,NA,NA,0
"780.000",5234,149,4,1,5,3,"condominio edificio calamares","rua analia franco, 260 . agua rasa",1991,1,1,1,1,1,1,1,1,1,1,1,1,0,0,0,0,"MOOCA",-23.5588022,-46.5734247,0
"750.000",9146,82,3,1,2,2,"condominio residencial bosque analia franco","rua pantojo, 757 . agua rasa",2008,1,1,1,1,1,1,1,1,1,1,1,1,0,0,0,0,"MOOCA",-23.5593955,-46.5697981,0
"890.000",9673,92,2,1,3,2,"condominio class analia franco","rua pantojo, 50 . agua rasa",2016,1,1,1,1,1,1,1,1,1,1,1,1,0,0,0,0,"MOOCA",-23.557225,-46.5760049,0
"860.000",10.617,81,2,1,3,2,"condominio class analia franco","rua pantojo, 50 . agua rasa",2016,1,1,1,1,1,1,1,1,1,1,1,1,0,0,0,0,"MOOCA",-23.557225,-46.5760049,0
"580.000",9666,60,2,1,2,2,"condominio class analia franco","rua pantojo, 50 . agua rasa",2016,1,1,1,1,1,1,1,1,1,1,1,1,0,0,0,0,"MOOCA",-23.557225,-46.5760049,0
"588.800",7747,76,3,1,2,2,"condominio horizons","rua joao teixeira da silva, 415 . agua rasa",2009,5,1,1,1,1,1,1,1,1,1,1,1,0,0,0,0,"MOOCA",-23.564987,-46.5624821,0
"452.000",6884,69,3,1,2,1,"condominio aroeira","rua teresina, 23 . agua rasa",2008,1,1,1,1,1,1,1,1,1,1,1,1,0,0,0,0,"MOOCA",-23.5597362,-46.5828216,0
"698.000",6647,105,2,1,2,2,"ND","0",NA,NA,NA,NA,NA,NA,NA,NA,NA,NA,NA,NA,NA,NA,NA,NA,NA,NA,NA,NA,0
"493.120",7044,70,2,0,2,1,"ND","0",NA,NA,NA,NA,NA,NA,NA,NA,NA,NA,NA,NA,NA,NA,NA,NA,NA,NA,NA,NA,0
"532.122",7289,73,3,1,2,1,"ND","0",NA,NA,NA,NA,NA,NA,NA,NA,NA,NA,NA,NA,NA,NA,NA,NA,NA,NA,NA,NA,0
"879.464",7328,120,3,1,5,3,"ND","0",NA,NA,NA,NA,NA,NA,NA,NA,NA,NA,NA,NA,NA,NA,NA,NA,NA,NA,NA,NA,0
"650.000",5416,120,3,1,4,2,"ND","0",NA,NA,NA,NA,NA,NA,NA,NA,NA,NA,NA,NA,NA,NA,NA,NA,NA,NA,NA,NA,0
"1.100.000",8593,128,3,1,3,2,"condominio saint german","0",NA,NA,NA,NA,NA,NA,NA,NA,NA,NA,NA,NA,NA,NA,NA,NA,NA,NA,NA,NA,0
"486.825",7159,68,3,1,2,2,"condominio silvana","rua piracununga, 703 . agua rasa",1998,1,1,1,0,1,0,1,1,0,1,1,1,0,0,0,0,"MOOCA",-23.5631004,-46.5779968,0
"399.000",6540,61,3,1,2,1,"condominio spazio vitta vila ema","avenida vila ema, 1899 . agua rasa",2012,5,1,1,1,1,1,1,1,1,1,1,1,0,0,0,1,"MOOCA",-23.5803992,-46.5587132,0
"760.000",12.666,60,2,1,2,2,"condominio class analia franco","rua pantojo, 50 . agua rasa",2016,1,1,1,1,1,1,1,1,1,1,1,1,0,0,0,0,"MOOCA",-23.557225,-46.5760049,0
"1.100.000",11.702,94,3,1,2,2,"ND","0",NA,NA,NA,NA,NA,NA,NA,NA,NA,NA,NA,NA,NA,NA,NA,NA,NA,NA,NA,NA,0
"610.000",8472,72,2,1,2,2,"condominio avigliana","rua guarei, 360 . agua rasa",2006,1,1,1,1,1,1,1,1,0,1,1,1,0,0,0,0,"MOOCA",-23.5584641,-46.5790318,0
"535.000",8359,64,3,1,2,2,"condominio silvana","rua piracununga, 703 . agua rasa",1998,1,1,1,0,1,0,1,1,0,1,1,1,0,0,0,0,"MOOCA",-23.5631004,-46.5779968,0
"520.000",7428,70,2,0,1,1,"ND","0",NA,NA,NA,NA,NA,NA,NA,NA,NA,NA,NA,NA,NA,NA,NA,NA,NA,NA,NA,NA,0
"742.000",9275,80,3,1,3,2,"condominio colombe d'or","rua rodrigues barbosa, 158 . agua rasa",1996,1,1,0,1,1,1,1,1,0,0,0,1,0,0,0,0,"MOOCA",-23.5540282,-46.571912,0
"820.000",10.123,81,2,1,3,2,"ND","0",NA,NA,NA,NA,NA,NA,NA,NA,NA,NA,NA,NA,NA,NA,NA,NA,NA,NA,NA,NA,0
"750.000",6000,125,3,1,3,3,"condominio villagio di fanti","rua joao borba, 108 . agua rasa",1998,1,1,0,1,0,0,0,1,0,0,0,1,0,0,0,0,"MOOCA",-23.557273,-46.5845444,0
"800.000",8247,97,3,1,2,2,"condominio residencial strauss","rua da mooca, 4655 . agua rasa",2005,1,1,1,1,1,1,1,1,1,1,1,1,0,0,0,0,"MOOCA",-23.5617004,-46.5812966,0
"650.000",6632,98,3,1,3,2,"condominio solar del rey","rua rodrigues barbosa, 144 . agua rasa",1989,1,1,0,1,1,0,0,0,0,0,0,0,0,0,0,0,"MOOCA",-23.5540957,-46.572153,0
"630.000",6057,104,4,1,2,2,"condominio deuses do olimpo","rua val de palmas, 302 . agua rasa",1996,1,1,0,0,1,1,1,1,0,1,0,1,0,0,0,0,"MOOCA",-23.5768485,-46.5656345,0
"800.000",7619,105,3,1,4,3,"ND","0",NA,NA,NA,NA,NA,NA,NA,NA,NA,NA,NA,NA,NA,NA,NA,NA,NA,NA,NA,NA,0
"800.000",7619,105,3,1,4,3,"ND","0",NA,NA,NA,NA,NA,NA,NA,NA,NA,NA,NA,NA,NA,NA,NA,NA,NA,NA,NA,NA,0
"330.000",NA,NA,NA,NA,NA,NA,NA,"0",NA,NA,NA,NA,NA,NA,NA,NA,NA,NA,NA,NA,NA,NA,NA,NA,NA,NA,NA,NA,0
"900.000",8411,107,3,1,4,2,"condominio san marino","rua campo largo, 216 . agua rasa",2008,1,1,0,1,1,0,1,1,0,1,1,1,0,0,0,0,"MOOCA",-23.5676248,-46.5836587,0
"310.000",6078,51,2,0,1,1,"condominio rio branco","rua lefosse, 168 . agua rasa",1984,1,1,1,1,1,1,0,0,1,1,1,0,0,0,0,0,"MOOCA",-23.5677887,-46.5610621,0
"1.400.000",7954,176,3,1,4,2,"condominio premium analia franco","rua analia franco, 311 . agua rasa",2011,1,1,1,1,1,1,1,1,0,1,1,1,0,0,0,0,"MOOCA",-23.5594556,-46.5731881,0
"490.000",7777,63,3,1,2,1,"condominio fatto novo avelino","avenida vila ema, 1595 . agua rasa",2010,1,1,1,1,1,1,1,1,1,1,1,1,0,0,0,1,"MOOCA",-23.5808331,-46.561134,0
"450.000",7031,64,2,1,2,2,"condominio solar de braganca","rua lefosse, 141 . agua rasa",1999,1,1,0,1,0,1,0,1,0,1,0,1,0,0,0,0,"MOOCA",-23.5679469,-46.5614079,0
"468.500",7436,63,2,1,2,1,"ND","0",NA,NA,NA,NA,NA,NA,NA,NA,NA,NA,NA,NA,NA,NA,NA,NA,NA,NA,NA,NA,0
"829.000",7895,105,3,1,3,2,"ND","0",NA,NA,NA,NA,NA,NA,NA,NA,NA,NA,NA,NA,NA,NA,NA,NA,NA,NA,NA,NA,0
"960.000",7111,135,3,1,3,3,"ND","0",NA,NA,NA,NA,NA,NA,NA,NA,NA,NA,NA,NA,NA,NA,NA,NA,NA,NA,NA,NA,0
"800.000",10.126,79,3,1,2,2,"condominio happy mooca","rua da mooca, 4218 . agua rasa",2012,1,1,1,1,1,1,1,1,1,1,1,1,0,0,0,0,"MOOCA",-23.5608281,-46.5855183,0
"335.000",5775,58,2,0,1,1,"ND","0",NA,NA,NA,NA,NA,NA,NA,NA,NA,NA,NA,NA,NA,NA,NA,NA,NA,NA,NA,NA,0
"389.000",5328,73,2,1,2,1,"ND","0",NA,NA,NA,NA,NA,NA,NA,NA,NA,NA,NA,NA,NA,NA,NA,NA,NA,NA,NA,NA,0
"646.000",5474,118,3,1,2,2,"ND","0",NA,NA,NA,NA,NA,NA,NA,NA,NA,NA,NA,NA,NA,NA,NA,NA,NA,NA,NA,NA,0
"1.250.000",5952,210,3,1,5,3,"ND","0",NA,NA,NA,NA,NA,NA,NA,NA,NA,NA,NA,NA,NA,NA,NA,NA,NA,NA,NA,NA,0
"1.200.000",NA,NA,NA,NA,NA,NA,NA,"0",NA,NA,NA,NA,NA,NA,NA,NA,NA,NA,NA,NA,NA,NA,NA,NA,NA,NA,NA,NA,0
"630.000",7325,86,2,1,2,2,"ND","0",NA,NA,NA,NA,NA,NA,NA,NA,NA,NA,NA,NA,NA,NA,NA,NA,NA,NA,NA,NA,0
"580.000",6823,85,3,1,2,2,"condominio boulevard perez","rua jaboticabal, 530 . agua rasa",1999,1,1,0,1,1,1,1,1,0,1,1,1,0,0,0,0,"MOOCA",-23.5616309,-46.5783843,0
"442.000",7015,63,3,1,2,1,"condominio hortencia vila ema ","rua domingos afonso, 460 . agua rasa",2011,1,1,1,1,1,1,1,1,1,1,1,1,0,0,0,0,"MOOCA",-23.5780764,-46.5628961,0
"1.734.000",10.383,167,3,1,3,3,"ND","0",NA,NA,NA,NA,NA,NA,NA,NA,NA,NA,NA,NA,NA,NA,NA,NA,NA,NA,NA,NA,0
"432.000",4800,90,3,0,2,1,"condominio jurece","rua barao do serro largo, 427 . agua rasa",1971,3,0,0,0,0,0,0,0,0,0,1,0,0,0,0,0,"MOOCA",-23.5543995,-46.5706144,0
"720.000",4800,150,3,1,2,2,"condominio villa azteca","rua pantojo, 150 . agua rasa",1994,1,1,1,1,1,0,0,0,0,1,1,1,0,0,0,0,"MOOCA",-23.5573725,-46.5753019,0
"850.000",7083,120,3,1,3,2,"condominio iporanga","rua da meacao, 144 . agua rasa",1992,1,1,1,1,1,1,0,1,0,1,1,1,0,0,0,0,"ARICANDUVA-FORMOSA-CARRAO",-23.5555929,-46.5691826,0
"272.000",5230,52,2,0,1,1,"ND","0",NA,NA,NA,NA,NA,NA,NA,NA,NA,NA,NA,NA,NA,NA,NA,NA,NA,NA,NA,NA,0
"770.000",5746,134,3,1,5,3,"ND","0",NA,NA,NA,NA,NA,NA,NA,NA,NA,NA,NA,NA,NA,NA,NA,NA,NA,NA,NA,NA,0
"757.000",7278,104,2,1,2,2,"ND","0",NA,NA,NA,NA,NA,NA,NA,NA,NA,NA,NA,NA,NA,NA,NA,NA,NA,NA,NA,NA,0
"570.000",6333,90,3,1,3,2,"condominio vilar do prado","rua pantojo, 883 . agua rasa",1996,1,1,1,1,1,1,1,1,0,1,0,1,0,0,0,0,"MOOCA",-23.5599685,-46.5686672,0
"650.000",9027,72,2,1,1,1,"condominio canto mio vila graciosa","avenida vila ema, 1027 . agua rasa",2013,1,1,1,1,1,1,1,1,1,0,1,1,0,0,0,1,"MOOCA",-23.5810788,-46.5667219,0
"340.000",5000,68,2,0,2,1,"condominio villa nazzaro ","rua atalaia velha, 140 . agua rasa",1983,3,1,1,1,1,1,1,1,1,1,0,1,0,0,0,0,"MOOCA",-23.5657732,-46.5713469,0
"400.000",6349,63,2,0,1,1,"condominio tarragona","rua butia, 117 . agua rasa",1996,1,1,1,1,1,1,0,1,0,1,0,1,0,0,0,0,"MOOCA",-23.5596596,-46.5707765,0
"830.000",7904,105,3,1,3,2,"ND","0",NA,NA,NA,NA,NA,NA,NA,NA,NA,NA,NA,NA,NA,NA,NA,NA,NA,NA,NA,NA,0
"945.000",7159,132,3,1,3,3,"condominio novo horizonte","rua sebastiao barbosa, 80 . agua rasa",1990,1,1,1,0,1,0,0,0,0,0,1,0,0,0,0,0,"MOOCA",-23.5532328,-46.5747133,0
"340.000",7083,48,2,0,1,1,"condominio fatto novo avelino","avenida vila ema, 1595 . agua rasa",2010,1,1,1,1,1,1,1,1,1,1,1,1,0,0,0,1,"MOOCA",-23.5808331,-46.561134,0
"470.000",5779,77,3,1,2,1,"condominio panorama","rua sebastiao barbosa, 133 . agua rasa",1985,1,1,1,1,0,1,1,1,1,1,1,0,0,0,0,0,"MOOCA",-23.5534099,-46.5740059,0
"1.990.000",7370,270,2,1,5,4,"condominio maison gledson","rua da mooca, 4738 . agua rasa",1994,1,1,1,1,1,1,1,0,1,1,1,1,0,0,0,0,"MOOCA",-23.5619758,-46.5803741,0
"750.000",7653,98,3,1,3,2,"ND","0",NA,NA,NA,NA,NA,NA,NA,NA,NA,NA,NA,NA,NA,NA,NA,NA,NA,NA,NA,NA,0
"730.000",7373,99,3,1,3,2,"ND","0",NA,NA,NA,NA,NA,NA,NA,NA,NA,NA,NA,NA,NA,NA,NA,NA,NA,NA,NA,NA,0
"650.000",5963,109,3,1,2,2,"condominio rio d'ouro","rua arariba, 109 . agua rasa",1995,1,1,1,0,0,0,0,0,1,0,1,0,0,0,0,0,"MOOCA",-23.5609865,-46.5686568,0
"385.000",7700,50,2,0,1,1,"condominio clos de la roche","rua jaboticabal, 71 . agua rasa",2004,1,1,1,1,1,1,1,1,1,1,1,1,0,0,0,0,"MOOCA",-23.5599391,-46.5823004,0
"1.384.000",7322,189,4,1,3,3,"ND","0",NA,NA,NA,NA,NA,NA,NA,NA,NA,NA,NA,NA,NA,NA,NA,NA,NA,NA,NA,NA,0
"400.000",6557,61,3,1,2,1,"ND","0",NA,NA,NA,NA,NA,NA,NA,NA,NA,NA,NA,NA,NA,NA,NA,NA,NA,NA,NA,NA,0
"1.100.000",4000,275,5,1,6,4,"condominio edificio calamares","rua analia franco, 260 . agua rasa",1991,1,1,1,1,1,1,1,1,1,1,1,1,0,0,0,0,"MOOCA",-23.5588022,-46.5734247,0
"840.000",5250,160,4,1,5,3,"condominio edificio calamares","rua analia franco, 260 . agua rasa",1991,1,1,1,1,1,1,1,1,1,1,1,1,0,0,0,0,"MOOCA",-23.5588022,-46.5734247,0
"720.000",10.285,70,2,0,1,1,"condominio max haus af","rua analia franco, 30 . agua rasa",2010,2,1,1,1,1,1,1,1,0,1,1,1,0,0,0,0,"MOOCA",-23.5569203,-46.5727288,0
"890.000",7063,126,3,1,5,3,"ND","rua doutor goulart penteado 85, agua rasa",NA,NA,NA,NA,NA,NA,NA,NA,NA,NA,NA,NA,NA,NA,NA,NA,0,"MOOCA",-23.56946,-46.5651942,0
"765.000",7216,106,3,1,4,2,"ND","0",NA,NA,NA,NA,NA,NA,NA,NA,NA,NA,NA,NA,NA,NA,NA,NA,NA,NA,NA,NA,0
"647.000",4976,130,3,1,3,1,"condominio ville de sevres","rua florianopolis, 275 . agua rasa",1988,1,1,1,0,1,0,0,1,1,1,0,0,0,0,0,0,"MOOCA",-23.5626561,-46.5841287,0
"425.000",7327,58,3,0,1,1,"condominio perugia","rua natal, 243 . agua rasa",1995,1,1,1,0,0,1,0,0,0,1,0,1,0,0,0,0,"MOOCA",-23.5611521,-46.5818285,0
"820.000",9425,87,3,1,2,2,"condominio monte chiaro","rua freire de andrade, 95 . agua rasa",2002,1,1,1,1,1,1,1,1,1,1,1,1,0,0,0,0,"MOOCA",-23.5532538,-46.5713572,0
"570.000",6333,90,3,1,3,2,"condominio vilar do prado","rua pantojo, 883 . agua rasa",1996,1,1,1,1,1,1,1,1,0,1,0,1,0,0,0,0,"MOOCA",-23.5599685,-46.5686672,0
"672.300",6002,112,3,1,4,2,"condominio rio d'ouro","rua arariba, 109 . agua rasa",1995,1,1,1,0,0,0,0,0,1,0,1,0,0,0,0,0,"MOOCA",-23.5609865,-46.5686568,0
"550.000",9016,61,2,1,2,1,"condominio totalita","rua corumbaiba, 589 . agua rasa",2014,1,1,1,1,1,1,1,1,1,1,1,1,0,0,0,0,"MOOCA",-23.570242,-46.5757522,0
"1.104.000",8492,130,3,1,3,3,"condominio firenze","rua campo largo, 369 . agua rasa",2012,1,1,1,1,1,1,1,1,0,1,1,1,0,0,0,0,"MOOCA",-23.5671912,-46.5821627,0
"580.000",9508,61,1,1,2,1,"ND","0",NA,NA,NA,NA,NA,NA,NA,NA,NA,NA,NA,NA,NA,NA,NA,NA,NA,NA,NA,NA,0
"780.000",8764,89,3,1,3,2,"ND","0",NA,NA,NA,NA,NA,NA,NA,NA,NA,NA,NA,NA,NA,NA,NA,NA,NA,NA,NA,NA,0
"410.000",7884,52,2,0,1,2,"condominio terra nostra iv","rua piracununga, 1200 . agua rasa",2002,1,1,1,1,1,1,1,1,0,0,1,1,0,0,0,0,"MOOCA",-23.5667381,-46.5802704,0
"439.000",6859,64,2,0,1,1,"ND","rua baguassu 97, agua rasa",NA,NA,NA,NA,NA,NA,NA,NA,NA,NA,NA,NA,NA,NA,NA,NA,0,"MOOCA",-23.5580521,-46.5757292,0
"800.000",8080,99,3,1,3,2,"ND","0",NA,NA,NA,NA,NA,NA,NA,NA,NA,NA,NA,NA,NA,NA,NA,NA,NA,NA,NA,NA,0
"750.000",6944,108,3,1,3,2,"ND","rua marechal barbacena 926, agua rasa",NA,NA,NA,NA,NA,NA,NA,NA,NA,NA,NA,NA,NA,NA,NA,NA,0,"MOOCA",-23.556595,-46.570506,0
"1.280.000",10.491,122,3,1,3,3,"ND","0",NA,NA,NA,NA,NA,NA,NA,NA,NA,NA,NA,NA,NA,NA,NA,NA,NA,NA,NA,NA,0
"490.000",7777,63,2,0,2,1,"condominio franco","rua piracununga, 95 . agua rasa",1985,1,1,1,0,0,0,0,0,0,0,1,0,0,0,0,0,"MOOCA",-23.5588238,-46.579704,0
"555.000",5285,105,3,1,2,1,"ND","rua joao bizarro da nave 200, agua rasa",NA,NA,NA,NA,NA,NA,NA,NA,NA,NA,NA,NA,NA,NA,NA,NA,0,"MOOCA",-23.5721948,-46.5676015,0
"1.748.000",5141,340,5,1,6,5,"ND","praca ituzaingo 10, agua rasa",NA,NA,NA,NA,NA,NA,NA,NA,NA,NA,NA,NA,NA,NA,NA,NA,0,"MOOCA",-23.5525775,-46.5720947,0
"629.000",7670,82,3,1,3,2,"condominio milani","rua do oratorio, 2319 . agua rasa",1996,3,1,1,1,1,1,1,1,1,1,1,1,0,0,0,0,"MOOCA",-23.5684711,-46.5830099,0
"490.000",7777,63,2,1,2,1,"condominio hortencia vila ema ","rua domingos afonso, 460 . agua rasa",2011,1,1,1,1,1,1,1,1,1,1,1,1,0,0,0,0,"MOOCA",-23.5780764,-46.5628961,0
"650.000",8904,73,2,1,2,1,"condominio canto mio vila graciosa","avenida vila ema, 1027 . agua rasa",2013,1,1,1,1,1,1,1,1,1,0,1,1,0,0,0,1,"MOOCA",-23.5810788,-46.5667219,0
"700.000",8536,82,3,1,3,2,"ND","0",NA,NA,NA,NA,NA,NA,NA,NA,NA,NA,NA,NA,NA,NA,NA,NA,NA,NA,NA,NA,0
"700.000",6363,110,3,1,1,2,"condominio del belvedere","rua pantojo, 113 . agua rasa",1996,1,1,1,0,1,1,0,1,1,0,1,1,0,0,0,0,"MOOCA",-23.5569667,-46.575451,0
"710.000",6228,114,3,1,3,2,"ND","0",NA,NA,NA,NA,NA,NA,NA,NA,NA,NA,NA,NA,NA,NA,NA,NA,NA,NA,NA,NA,0
"600.000",9230,65,3,1,2,2,"condominio . terracos da mooca","rua porto alegre, 333 . agua rasa",2008,1,1,0,0,1,1,0,0,0,0,1,0,0,0,0,0,"MOOCA",-23.5630557,-46.581852,0
"350.000",5932,59,2,0,1,1,"ND","0",NA,NA,NA,NA,NA,NA,NA,NA,NA,NA,NA,NA,NA,NA,NA,NA,NA,NA,NA,NA,0
"365.000",6120,58,3,0,1,1,"condominio perugia","rua natal, 243 . agua rasa",1995,1,1,1,0,0,1,0,0,0,1,0,1,0,0,0,0,"MOOCA",-23.5611521,-46.5818285,0
"900.000",9278,97,3,1,2,2,"ND","0",NA,NA,NA,NA,NA,NA,NA,NA,NA,NA,NA,NA,NA,NA,NA,NA,NA,NA,NA,NA,0
"377.200",6858,55,2,0,1,1,"condominio clos de la roche","rua jaboticabal, 71 . agua rasa",2004,1,1,1,1,1,1,1,1,1,1,1,1,0,0,0,0,"MOOCA",-23.5599391,-46.5823004,0
"850.000",9239,92,3,1,2,2,"condominio citta della mooca","rua cuiaba, 989 . agua rasa",2011,1,1,1,1,1,1,1,1,1,1,1,1,0,0,0,0,"MOOCA",-23.5618101,-46.5872747,0
"930.000",6888,135,3,1,3,2,"condominio mont blanc","rua miragem, 202 . agua rasa",1995,1,1,1,0,1,1,0,1,0,1,0,1,0,0,0,0,"MOOCA",-23.5604292,-46.5710034,0
"455.000",6893,66,2,0,2,1,"condominio tarragona","rua butia, 117 . agua rasa",1996,1,1,1,1,1,1,0,1,0,1,0,1,0,0,0,0,"MOOCA",-23.5596596,-46.5707765,0
"510.000",7727,66,3,1,2,1,"condominio fatto novo avelino","avenida vila ema, 1595 . agua rasa",2010,1,1,1,1,1,1,1,1,1,1,1,1,0,0,0,1,"MOOCA",-23.5808331,-46.561134,0
"561.800",6851,82,3,1,3,2,"condominio ville chablis","rua demetrio ribeiro, 546 . agua rasa",1996,1,1,1,1,1,1,0,1,0,1,1,1,0,0,0,0,"MOOCA",-23.5528207,-46.5737944,0
"1.200.000",8955,134,4,1,5,2,"condominio mont blanc","rua miragem, 202 . agua rasa",1995,1,1,1,0,1,1,0,1,0,1,0,1,0,0,0,0,"MOOCA",-23.5604292,-46.5710034,0
"630.000",8750,72,2,1,2,1,"condominio canto mio vila graciosa","avenida vila ema, 1027 . agua rasa",2013,1,1,1,1,1,1,1,1,1,0,1,1,0,0,0,1,"MOOCA",-23.5810788,-46.5667219,0
"530.000",9464,56,2,0,2,2,"condominio mabel","rua piracununga, 681 . agua rasa",1986,1,1,1,0,1,1,0,1,0,1,1,1,0,0,0,0,"MOOCA",-23.5626197,-46.5777323,0
"315.000",5833,54,1,0,1,0,"condominio violeta","rua rui martins, 102 . agua rasa",1970,1,1,0,0,0,0,0,1,0,0,0,0,0,0,0,0,"MOOCA",-23.5634339,-46.5865211,0
"580.000",7341,79,3,1,3,1,"condominio milani","rua do oratorio, 2319 . agua rasa",1996,3,1,1,1,1,1,1,1,1,1,1,1,0,0,0,0,"MOOCA",-23.5684711,-46.5830099,0
"750.000",6147,122,3,1,3,2,"condominio queen elizabeth","rua bento manuel, 75 . agua rasa",1996,1,1,1,0,1,0,0,0,0,1,1,1,0,0,0,0,"MOOCA",-23.5532057,-46.5734005,0
"950.000",7089,134,3,1,2,2,"condominio canto mio vila graciosa","avenida vila ema, 1027 . agua rasa",2013,1,1,1,1,1,1,1,1,1,0,1,1,0,0,0,1,"MOOCA",-23.5810788,-46.5667219,0
"800.000",7339,109,3,1,3,2,"condominio rio d'ouro","rua arariba, 109 . agua rasa",1995,1,1,1,0,0,0,0,0,1,0,1,0,0,0,0,0,"MOOCA",-23.5609865,-46.5686568,0
"660.000",8800,75,3,1,2,2,"condominio happy mooca","rua da mooca, 4218 . agua rasa",2012,1,1,1,1,1,1,1,1,1,1,1,1,0,0,0,0,"MOOCA",-23.5608281,-46.5855183,0
"980.000",10000,98,3,1,2,2,"ND","0",NA,NA,NA,NA,NA,NA,NA,NA,NA,NA,NA,NA,NA,NA,NA,NA,NA,NA,NA,NA,0
"1.600.000",12.698,126,3,1,3,2,"condominio massimo alto da mooca","rua teresina, 541 . agua rasa",2010,1,1,1,1,1,1,1,1,1,1,1,1,0,0,0,0,"MOOCA",-23.5640024,-46.5831606,0
"370.000",6607,56,2,0,1,1,"condominio maria luiza","rua silvio de sousa, 280 . agua rasa",1980,1,1,1,0,0,0,0,1,1,0,0,0,0,0,0,0,"MOOCA",-23.5771768,-46.5600637,0
"432.000",4800,90,1,0,2,1,"condominio jurece","rua barao do serro largo, 427 . agua rasa",1971,3,0,0,0,0,0,0,0,0,0,1,0,0,0,0,0,"MOOCA",-23.5543995,-46.5706144,0
"450.000",9000,50,2,0,1,1,"condominio cotes du rhone","avenida vereador abel ferreira, 1950 . agua rasa",2002,3,1,1,1,1,1,1,1,1,1,1,1,0,0,0,0,"MOOCA",-23.564187,-46.5615776,0
"1.131.577",8025,141,3,1,5,3,"ND","0",NA,NA,NA,NA,NA,NA,NA,NA,NA,NA,NA,NA,NA,NA,NA,NA,NA,NA,NA,NA,0
"650.000",7386,88,3,1,3,2,"ND","0",NA,NA,NA,NA,NA,NA,NA,NA,NA,NA,NA,NA,NA,NA,NA,NA,NA,NA,NA,NA,0
"365.000",5214,70,2,0,2,1,"condominio villa nazzaro ","rua atalaia velha, 140 . agua rasa",1983,3,1,1,1,1,1,1,1,1,1,0,1,0,0,0,0,"MOOCA",-23.5657732,-46.5713469,0
"1.275.000",8018,159,4,1,4,3,"condominio portal da serra","rua serra da piedade, 40 . agua rasa",1998,1,1,1,1,1,0,0,1,0,0,1,1,0,0,0,0,"MOOCA",-23.5746167,-46.5733373,0
"1.330.000",6650,200,3,1,4,4,"ND","0",NA,NA,NA,NA,NA,NA,NA,NA,NA,NA,NA,NA,NA,NA,NA,NA,NA,NA,NA,NA,0
"540.000",7714,70,2,0,2,1,"ND","0",NA,NA,NA,NA,NA,NA,NA,NA,NA,NA,NA,NA,NA,NA,NA,NA,NA,NA,NA,NA,0
"900.000",6428,140,3,1,5,3,"ND","rua doutor goulart penteado 85, agua rasa",NA,NA,NA,NA,NA,NA,NA,NA,NA,NA,NA,NA,NA,NA,NA,NA,0,"MOOCA",-23.56946,-46.5651942,0
"1.272.000",10.258,124,3,1,2,2,"condominio montemagno club","avenida montemagno, 501 . agua rasa",2011,4,1,1,1,1,1,1,1,1,1,1,1,0,0,0,0,"MOOCA",-23.566403,-46.5582354,0
"490.000",7656,64,2,0,1,1,"ND","0",NA,NA,NA,NA,NA,NA,NA,NA,NA,NA,NA,NA,NA,NA,NA,NA,NA,NA,NA,NA,0
"715.000",6383,112,2,1,3,2,"ND","0",NA,NA,NA,NA,NA,NA,NA,NA,NA,NA,NA,NA,NA,NA,NA,NA,NA,NA,NA,NA,0
"690.000",5390,128,3,1,3,1,"condominio ville de sevres","rua florianopolis, 275 . agua rasa",1988,1,1,1,0,1,0,0,1,1,1,0,0,0,0,0,0,"MOOCA",-23.5626561,-46.5841287,0
"393.882",6675,59,3,0,1,1,"condominio perugia","rua natal, 243 . agua rasa",1995,1,1,1,0,0,1,0,0,0,1,0,1,0,0,0,0,"MOOCA",-23.5611521,-46.5818285,0
"3.800.000",15.019,253,4,1,4,6,"ND","0",NA,NA,NA,NA,NA,NA,NA,NA,NA,NA,NA,NA,NA,NA,NA,NA,NA,NA,NA,NA,0
"1.850.000",6292,294,4,1,5,3,"condominio vila romana","0",NA,NA,NA,NA,NA,NA,NA,NA,NA,NA,NA,NA,NA,NA,NA,NA,NA,NA,NA,NA,0
"550.000",5670,97,3,1,2,1,"condominio ville chablis","rua demetrio ribeiro, 546 . agua rasa",1996,1,1,1,1,1,1,0,1,0,1,1,1,0,0,0,0,"MOOCA",-23.5528207,-46.5737944,0
"670.000",8375,80,3,1,3,2,"condominio milani","rua do oratorio, 2319 . agua rasa",1996,3,1,1,1,1,1,1,1,1,1,1,1,0,0,0,0,"MOOCA",-23.5684711,-46.5830099,0
"870.000",5576,156,2,1,3,2,"condominio saint paul","rua oiti, 200 . agua rasa",1995,1,1,0,0,1,1,1,0,0,0,0,1,0,0,0,0,"MOOCA",-23.5608002,-46.5683473,0
"680.000",6938,98,3,1,3,2,"condominio vale das palmas ","avenida sapopemba, 2534 . agua rasa",1981,4,1,1,0,1,1,1,1,1,1,1,1,0,0,0,0,"MOOCA",-23.5738077,-46.5643337,0
"470.000",7460,63,3,1,2,1,"condominio hortencia vila ema ","rua domingos afonso, 460 . agua rasa",2011,1,1,1,1,1,1,1,1,1,1,1,1,0,0,0,0,"MOOCA",-23.5780764,-46.5628961,0
"650.000",5284,123,3,1,3,2,"condominio queen elizabeth","rua bento manuel, 75 . agua rasa",1996,1,1,1,0,1,0,0,0,0,1,1,1,0,0,0,0,"MOOCA",-23.5532057,-46.5734005,0
"360.000",7200,50,2,0,1,1,"condominio clos de la roche","rua jaboticabal, 71 . agua rasa",2004,1,1,1,1,1,1,1,1,1,1,1,1,0,0,0,0,"MOOCA",-23.5599391,-46.5823004,0
"380.000",5846,65,2,0,2,0,"ND","0",NA,NA,NA,NA,NA,NA,NA,NA,NA,NA,NA,NA,NA,NA,NA,NA,NA,NA,NA,NA,0
"630.000",9000,70,2,0,1,1,"condominio max haus af","rua analia franco, 30 . agua rasa",2010,2,1,1,1,1,1,1,1,0,1,1,1,0,0,0,0,"MOOCA",-23.5569203,-46.5727288,0
"399.000",6879,58,3,0,1,1,"condominio perugia","rua natal, 243 . agua rasa",1995,1,1,1,0,0,1,0,0,0,1,0,1,0,0,0,0,"MOOCA",-23.5611521,-46.5818285,0
"790.000",6076,130,3,1,5,3,"ND","0",NA,NA,NA,NA,NA,NA,NA,NA,NA,NA,NA,NA,NA,NA,NA,NA,NA,NA,NA,NA,0
"670.000",7701,87,3,1,3,2,"ND","0",NA,NA,NA,NA,NA,NA,NA,NA,NA,NA,NA,NA,NA,NA,NA,NA,NA,NA,NA,NA,0
"300.000",4918,61,2,0,2,1,"condominio panorama","0",NA,NA,NA,NA,NA,NA,NA,NA,NA,NA,NA,NA,NA,NA,NA,NA,NA,NA,NA,NA,0
"650.000",9285,70,1,0,1,1,"condominio max haus af","rua analia franco, 30 . agua rasa",2010,2,1,1,1,1,1,1,1,0,1,1,1,0,0,0,0,"MOOCA",-23.5569203,-46.5727288,0
"795.000",9137,87,3,1,3,2,"condominio monte chiaro","rua freire de andrade, 95 . agua rasa",2002,1,1,1,1,1,1,1,1,1,1,1,1,0,0,0,0,"MOOCA",-23.5532538,-46.5713572,0
"480.000",5581,86,2,0,2,1,"condominio tocantins","rua silva coutinho, 96 . agua rasa",1976,1,1,1,1,1,1,0,1,1,1,1,0,0,0,0,0,"MOOCA",-23.571791,-46.5806471,0
"660.000",6534,101,3,1,3,1,"condominio top vision","rua analia franco, 275 . agua rasa",1994,1,1,0,0,1,0,1,1,0,1,0,1,0,0,0,0,"MOOCA",-23.5592258,-46.5729607,0
"585.724",5742,102,3,1,3,1,"ND","0",NA,NA,NA,NA,NA,NA,NA,NA,NA,NA,NA,NA,NA,NA,NA,NA,NA,NA,NA,NA,0
"589.700",8546,69,3,1,2,1,"condominio villa d'este","rua natal, 386 . agua rasa",1999,1,1,1,1,1,1,0,1,1,1,1,1,0,0,0,0,"MOOCA",-23.5623204,-46.5823604,0
"1.250.000",8503,147,3,1,5,1,"ND","0",NA,NA,NA,NA,NA,NA,NA,NA,NA,NA,NA,NA,NA,NA,NA,NA,NA,NA,NA,NA,0
"710.000",5071,140,3,1,NA,2,"ND","rua bom jesus 72, agua rasa",NA,NA,NA,NA,NA,NA,NA,NA,NA,NA,NA,NA,NA,NA,NA,NA,0,"MOOCA",-23.5591847,-46.5760534,0
"550.000",5339,103,3,1,3,1,"ND","0",NA,NA,NA,NA,NA,NA,NA,NA,NA,NA,NA,NA,NA,NA,NA,NA,NA,NA,NA,NA,0
"568.000",9161,62,2,1,2,2,"condominio maison de provence","rua da mooca, 4787 . agua rasa",2008,1,1,1,1,1,1,1,1,1,1,0,1,0,0,0,0,"MOOCA",-23.5618151,-46.5801901,0
"400.000",6557,61,3,1,2,1,"condominio spazio vitta vila ema","avenida vila ema, 1899 . agua rasa",2012,5,1,1,1,1,1,1,1,1,1,1,1,0,0,0,1,"MOOCA",-23.5803992,-46.5587132,0
"564.000",7050,80,3,1,3,1,"condominio milani","rua do oratorio, 2319 . agua rasa",1996,3,1,1,1,1,1,1,1,1,1,1,1,0,0,0,0,"MOOCA",-23.5684711,-46.5830099,0
"380.000",3454,110,2,0,1,0,"ND","0",NA,NA,NA,NA,NA,NA,NA,NA,NA,NA,NA,NA,NA,NA,NA,NA,NA,NA,NA,NA,0
"1.311.000",13.11,100,3,1,4,2,"condominio beverly hills residence club","rua da mooca, 4969 . agua rasa",2012,1,1,0,1,1,1,1,1,0,1,1,1,0,0,0,0,"MOOCA",-23.5624483,-46.5779797,0
"740.000",10.571,70,2,1,3,2,"ND","0",NA,NA,NA,NA,NA,NA,NA,NA,NA,NA,NA,NA,NA,NA,NA,NA,NA,NA,NA,NA,0
"640.000",7356,87,3,1,2,2,"condominio montjuic plaza","rua pantojo, 917 . agua rasa",1999,1,1,1,1,1,1,1,1,1,1,1,1,0,0,0,0,"MOOCA",-23.5601936,-46.5684228,0
"425.000",7727,55,2,0,1,1,"condominio fontana di trevi","rua mogi mirim, 138 . agua rasa",2002,2,1,0,0,1,1,1,1,0,1,1,1,0,0,0,0,"MOOCA",-23.5590973,-46.5785312,0
"900.000",7894,114,3,1,5,3,"ND","0",NA,NA,NA,NA,NA,NA,NA,NA,NA,NA,NA,NA,NA,NA,NA,NA,NA,NA,NA,NA,0
"320.000",7441,43,2,0,1,1,"ND","0",NA,NA,NA,NA,NA,NA,NA,NA,NA,NA,NA,NA,NA,NA,NA,NA,NA,NA,NA,NA,0
"1.500.000",10.067,149,3,1,2,3,"condominio boulevard perez","rua jaboticabal, 530 . agua rasa",1999,1,1,0,1,1,1,1,1,0,1,1,1,0,0,0,0,"MOOCA",-23.5616309,-46.5783843,0
"1.100.000",7746,142,4,1,4,3,"condominio costa azul","rua piracununga, 1058 . agua rasa",1994,1,1,1,1,1,1,0,1,0,1,0,1,0,0,0,0,"MOOCA",-23.5654178,-46.579889,0
"900.000",4568,197,4,1,5,0,"ND","0",NA,NA,NA,NA,NA,NA,NA,NA,NA,NA,NA,NA,NA,NA,NA,NA,NA,NA,NA,NA,0
"400.000",7692,52,2,0,1,1,"ND","0",NA,NA,NA,NA,NA,NA,NA,NA,NA,NA,NA,NA,NA,NA,NA,NA,NA,NA,NA,NA,0
"1.300.000",4406,295,4,1,3,3,"condominio itapua","0",NA,NA,NA,NA,NA,NA,NA,NA,NA,NA,NA,NA,NA,NA,NA,NA,NA,NA,NA,NA,0
"420.000",6774,62,2,1,2,1,"ND","0",NA,NA,NA,NA,NA,NA,NA,NA,NA,NA,NA,NA,NA,NA,NA,NA,NA,NA,NA,NA,0
"630.000",6300,100,3,1,2,1,"ND","0",NA,NA,NA,NA,NA,NA,NA,NA,NA,NA,NA,NA,NA,NA,NA,NA,NA,NA,NA,NA,0
"345.000",4423,78,2,0,1,0,"ND","0",NA,NA,NA,NA,NA,NA,NA,NA,NA,NA,NA,NA,NA,NA,NA,NA,NA,NA,NA,NA,0
"480.000",7500,64,2,0,1,1,"ND","0",NA,NA,NA,NA,NA,NA,NA,NA,NA,NA,NA,NA,NA,NA,NA,NA,NA,NA,NA,NA,0
"430.000",8269,52,2,0,1,1,"condominio clos de la roche","rua jaboticabal, 71 . agua rasa",2004,1,1,1,1,1,1,1,1,1,1,1,1,0,0,0,0,"MOOCA",-23.5599391,-46.5823004,0
"430.000",6615,65,2,0,2,1,"condominio palazzo san remo","0",NA,NA,NA,NA,NA,NA,NA,NA,NA,NA,NA,NA,NA,NA,NA,NA,NA,NA,NA,NA,0
"745.000",10.067,74,3,1,2,2,"condominio my home","rua amapa, 116 . agua rasa",2013,1,1,1,1,1,1,1,1,1,1,1,1,0,0,0,0,"MOOCA",-23.5699267,-46.5708337,0
"390.000",4814,81,2,1,2,1,"ND","0",NA,NA,NA,NA,NA,NA,NA,NA,NA,NA,NA,NA,NA,NA,NA,NA,NA,NA,NA,NA,0
"310.000",7380,42,1,0,1,1,"ND","0",NA,NA,NA,NA,NA,NA,NA,NA,NA,NA,NA,NA,NA,NA,NA,NA,NA,NA,NA,NA,0
"389.900",7220,54,2,0,1,1,"condominio residencial porta do sol - bloco a - angra dos reis ","rua antero de quental, 236 . agua rasa",2002,3,1,1,1,1,1,1,1,1,1,1,1,0,0,0,0,"MOOCA",-23.5771684,-46.5631979,0
"1.200.000",120,10,4,1,4,2,"condominio . premiere analia franco","rua freire de andrade, 67 . agua rasa",2007,1,1,1,0,1,1,1,1,0,1,0,1,0,0,0,0,"MOOCA",-23.5530317,-46.5716112,0
"583.000",6550,89,2,1,1,1,"condominio de angelis","rua cuiaba, 990 . agua rasa",1974,2,1,0,0,0,0,0,1,0,1,0,0,0,0,0,0,"MOOCA",-23.5620754,-46.5875696,0
"289.600",5171,56,2,0,1,0,"ND","0",NA,NA,NA,NA,NA,NA,NA,NA,NA,NA,NA,NA,NA,NA,NA,NA,NA,NA,NA,NA,0
"400.000",5714,70,2,0,2,1,"condominio johann ottenbreit","rua capitao militao, 50 . agua rasa",1978,1,1,1,0,0,0,0,0,0,0,0,0,0,0,0,0,"MOOCA",-23.5768826,-46.5619941,0
"302.000",5490,55,2,0,1,1,"condominio rio branco","rua lefosse, 168 . agua rasa",1984,1,1,1,1,1,1,0,0,1,1,1,0,0,0,0,0,"MOOCA",-23.5677887,-46.5610621,0
"370.000",4302,86,2,0,2,1,"condominio castelo de paiva","rua tujuguaba, 70 . agua rasa",1984,1,0,1,1,1,1,1,1,1,1,1,1,0,0,0,0,"MOOCA",-23.5768136,-46.564619,0
"790.000",7383,107,3,1,3,2,"ND","0",NA,NA,NA,NA,NA,NA,NA,NA,NA,NA,NA,NA,NA,NA,NA,NA,NA,NA,NA,NA,0
"970.000",8508,114,3,1,4,3,"ND","0",NA,NA,NA,NA,NA,NA,NA,NA,NA,NA,NA,NA,NA,NA,NA,NA,NA,NA,NA,NA,0
"855.009",9500,90,3,1,2,2,"condominio allegro alto da mooca","rua jaboticabal, 554 . agua rasa",2015,1,1,0,1,1,1,1,1,0,1,1,1,0,0,0,0,"MOOCA",-23.5618983,-46.5780838,0
"500.000",6250,80,3,0,2,1,"ND","0",NA,NA,NA,NA,NA,NA,NA,NA,NA,NA,NA,NA,NA,NA,NA,NA,NA,NA,NA,NA,0
"525.000",8203,64,3,1,2,2,"condominio aroeira","rua teresina, 23 . agua rasa",2008,1,1,1,1,1,1,1,1,1,1,1,1,0,0,0,0,"MOOCA",-23.5597362,-46.5828216,0
"945.000",6750,140,3,1,3,2,"condominio mont blanc","rua miragem, 202 . agua rasa",1995,1,1,1,0,1,1,0,1,0,1,0,1,0,0,0,0,"MOOCA",-23.5604292,-46.5710034,0
"947.000",10.885,87,3,1,3,2,"condominio monte chiaro","rua freire de andrade, 95 . agua rasa",2002,1,1,1,1,1,1,1,1,1,1,1,1,0,0,0,0,"MOOCA",-23.5532538,-46.5713572,0
"460.000",9200,50,2,0,1,1,"condominio cotes du rhone","avenida vereador abel ferreira, 1950 . agua rasa",2002,3,1,1,1,1,1,1,1,1,1,1,1,0,0,0,0,"MOOCA",-23.564187,-46.5615776,0
"530.000",8281,64,3,1,2,2,"condominio aroeira","rua teresina, 23 . agua rasa",2008,1,1,1,1,1,1,1,1,1,1,1,1,0,0,0,0,"MOOCA",-23.5597362,-46.5828216,0
"360.000",7500,48,2,0,1,1,"condominio spazio vitta vila ema","avenida vila ema, 1899 . agua rasa",2012,5,1,1,1,1,1,1,1,1,1,1,1,0,0,0,1,"MOOCA",-23.5803992,-46.5587132,0
"580.000",6987,83,3,1,2,2,"condominio guaeca","rua sebastiao barbosa, 120 . agua rasa",1998,1,1,1,0,1,0,0,1,0,1,1,1,0,0,0,0,"MOOCA",-23.553502,-46.5744698,0
"550.000",8870,62,2,1,2,2,"condominio maison de provence","rua da mooca, 4787 . agua rasa",2008,1,1,1,1,1,1,1,1,1,1,0,1,0,0,0,0,"MOOCA",-23.5618151,-46.5801901,0
"525.000",7094,74,3,1,2,2,"ND","0",NA,NA,NA,NA,NA,NA,NA,NA,NA,NA,NA,NA,NA,NA,NA,NA,NA,NA,NA,NA,0
"725.000",9294,78,3,1,2,2,"condominio marbela","rua miragem, 35 . agua rasa",2008,1,1,1,1,1,1,1,1,1,1,1,1,0,0,0,0,"MOOCA",-23.560384,-46.5694273,0
"783.008",9000,87,3,1,2,2,"condominio montjuic plaza","rua pantojo, 917 . agua rasa",1999,1,1,1,1,1,1,1,1,1,1,1,1,0,0,0,0,"MOOCA",-23.5601936,-46.5684228,0
"510.000",5730,89,3,1,2,1,"condominio vilar do prado","rua pantojo, 883 . agua rasa",1996,1,1,1,1,1,1,1,1,0,1,0,1,0,0,0,0,"MOOCA",-23.5599685,-46.5686672,0
"500.000",7462,67,2,0,2,1,"condominio tarragona","rua butia, 117 . agua rasa",1996,1,1,1,1,1,1,0,1,0,1,0,1,0,0,0,0,"MOOCA",-23.5596596,-46.5707765,0
"748.000",9589,78,3,1,2,1,"condominio citta della mooca","rua cuiaba, 989 . agua rasa",2011,1,1,1,1,1,1,1,1,1,1,1,1,0,0,0,0,"MOOCA",-23.5618101,-46.5872747,0
"571.839",6889,83,3,1,2,1,"condominio totalita","rua corumbaiba, 589 . agua rasa",2014,1,1,1,1,1,1,1,1,1,1,1,1,0,0,0,0,"MOOCA",-23.570242,-46.5757522,0
"510.000",6455,79,3,1,2,1,"condominio ravena","rua do acre, 542 . agua rasa",1993,1,1,1,1,1,1,0,1,0,1,1,0,0,0,0,0,"MOOCA",-23.55872,-46.5807224,0
"460.000",8846,52,2,0,1,2,"condominio terra nostra iv","rua piracununga, 1200 . agua rasa",2002,1,1,1,1,1,1,1,1,0,0,1,1,0,0,0,0,"MOOCA",-23.5667381,-46.5802704,0
"640.000",8000,80,3,1,3,2,"condominio colombe d'or","rua rodrigues barbosa, 158 . agua rasa",1996,1,1,0,1,1,1,1,1,0,0,0,1,0,0,0,0,"MOOCA",-23.5540282,-46.571912,0
"850.000",9770,87,3,1,3,2,"condominio monte chiaro","rua freire de andrade, 95 . agua rasa",2002,1,1,1,1,1,1,1,1,1,1,1,1,0,0,0,0,"MOOCA",-23.5532538,-46.5713572,0
"900.000",10.112,89,3,1,2,2,"ND","0",NA,NA,NA,NA,NA,NA,NA,NA,NA,NA,NA,NA,NA,NA,NA,NA,NA,NA,NA,NA,0
"350.000",6481,54,2,0,1,1,"condominio provence","rua antero de quental, 166 . agua rasa",2004,1,1,0,1,1,0,0,1,0,0,0,1,0,0,0,0,"MOOCA",-23.576597,-46.5634889,0
"270.000",7105,38,2,0,1,0,"condominio moment analia franco","rua quixada, 60 . agua rasa",2021,1,1,0,1,1,1,1,1,0,1,1,1,0,0,0,0,"MOOCA",-23.5660475,-46.5670933,0
"360.000",6666,54,2,0,1,1,"condominio residencial porta do sol - bloco a - angra dos reis ","rua antero de quental, 236 . agua rasa",2002,3,1,1,1,1,1,1,1,1,1,1,1,0,0,0,0,"MOOCA",-23.5771684,-46.5631979,0
"672.000",8000,84,3,1,2,1,"condominio solar del rey","rua rodrigues barbosa, 144 . agua rasa",1989,1,1,0,1,1,0,0,0,0,0,0,0,0,0,0,0,"MOOCA",-23.5540957,-46.572153,0
"540.000",6750,80,2,1,2,1,"condominio ravena","rua do acre, 542 . agua rasa",1993,1,1,1,1,1,1,0,1,0,1,1,0,0,0,0,0,"MOOCA",-23.55872,-46.5807224,0
"430.696",5383,80,2,0,1,1,"ND","0",NA,NA,NA,NA,NA,NA,NA,NA,NA,NA,NA,NA,NA,NA,NA,NA,NA,NA,NA,NA,0
"620.000",8857,70,2,0,1,1,"condominio max haus af","rua analia franco, 30 . agua rasa",2010,2,1,1,1,1,1,1,1,0,1,1,1,0,0,0,0,"MOOCA",-23.5569203,-46.5727288,0
"1.280.000",10.322,124,3,1,4,3,"ND","0",NA,NA,NA,NA,NA,NA,NA,NA,NA,NA,NA,NA,NA,NA,NA,NA,NA,NA,NA,NA,0
"450.000",6521,69,2,1,2,1,"condominio moratta vila ema","rua caioaba, 385 . agua rasa",2013,1,1,1,1,1,1,1,1,1,1,1,1,0,0,0,0,"MOOCA",-23.5781576,-46.564206,0
"300.000",4411,68,2,0,2,0,"condominio violeta","rua rui martins, 102 . agua rasa",1970,1,1,0,0,0,0,0,1,0,0,0,0,0,0,0,0,"MOOCA",-23.5634339,-46.5865211,0
"780.000",8666,90,3,1,3,2,"condominio monte chiaro","rua freire de andrade, 95 . agua rasa",2002,1,1,1,1,1,1,1,1,1,1,1,1,0,0,0,0,"MOOCA",-23.5532538,-46.5713572,0
"350.000",3645,96,2,0,1,0,"ND","0",NA,NA,NA,NA,NA,NA,NA,NA,NA,NA,NA,NA,NA,NA,NA,NA,NA,NA,NA,NA,0
"500.000",8928,56,2,0,2,2,"condominio mabel","rua piracununga, 681 . agua rasa",1986,1,1,1,0,1,1,0,1,0,1,1,1,0,0,0,0,"MOOCA",-23.5626197,-46.5777323,0
"800.000",9195,87,3,1,2,2,"condominio monte chiaro","rua freire de andrade, 95 . agua rasa",2002,1,1,1,1,1,1,1,1,1,1,1,1,0,0,0,0,"MOOCA",-23.5532538,-46.5713572,0
"500.035",7937,63,3,1,2,1,"ND","0",NA,NA,NA,NA,NA,NA,NA,NA,NA,NA,NA,NA,NA,NA,NA,NA,NA,NA,NA,NA,0
"450.000",10000,45,2,0,1,1,"condominio viver","rua do oratorio, 1851 . agua rasa",2009,3,1,0,1,1,0,0,1,0,1,1,1,0,0,0,0,"MOOCA",-23.5667383,-46.586893,0
"692.000",9226,75,2,1,2,2,"condominio happy mooca","rua da mooca, 4218 . agua rasa",2012,1,1,1,1,1,1,1,1,1,1,1,1,0,0,0,0,"MOOCA",-23.5608281,-46.5855183,0
"420.000",7000,60,2,0,1,1,"ND","0",NA,NA,NA,NA,NA,NA,NA,NA,NA,NA,NA,NA,NA,NA,NA,NA,NA,NA,NA,NA,0
"445.000",9673,46,2,0,1,1,"condominio viver","rua do oratorio, 1851 . agua rasa",2009,3,1,0,1,1,0,0,1,0,1,1,1,0,0,0,0,"MOOCA",-23.5667383,-46.586893,0
"1.200.000",8333,144,4,1,5,3,"ND","0",NA,NA,NA,NA,NA,NA,NA,NA,NA,NA,NA,NA,NA,NA,NA,NA,NA,NA,NA,NA,0
"692.000",7440,93,3,1,2,1,"ND","0",NA,NA,NA,NA,NA,NA,NA,NA,NA,NA,NA,NA,NA,NA,NA,NA,NA,NA,NA,NA,0
"610.000",8591,71,3,1,2,1,"condominio ascoli piceno","rua campo largo, 156 . agua rasa",1998,1,1,0,1,1,1,1,1,0,1,1,1,0,0,0,0,"MOOCA",-23.5674763,-46.5841648,0
"472.447",10.27,46,2,0,1,1,"condominio viver","rua do oratorio, 1851 . agua rasa",2009,3,1,0,1,1,0,0,1,0,1,1,1,0,0,0,0,"MOOCA",-23.5667383,-46.586893,0
"590.000",8428,70,2,1,2,1,"condominio panorama","rua sebastiao barbosa, 133 . agua rasa",1985,1,1,1,1,0,1,1,1,1,1,1,0,0,0,0,0,"MOOCA",-23.5534099,-46.5740059,0
"272.000",9066,30,2,0,1,0,"ND","0",NA,NA,NA,NA,NA,NA,NA,NA,NA,NA,NA,NA,NA,NA,NA,NA,NA,NA,NA,NA,0
"766.000",8511,90,3,1,3,1,"condominio residencial bosque analia franco","rua pantojo, 757 . agua rasa",2008,1,1,1,1,1,1,1,1,1,1,1,1,0,0,0,0,"MOOCA",-23.5593955,-46.5697981,0
"749.000",19.205,39,2,1,2,1,"condominio residencial bosque analia franco","rua pantojo, 757 . agua rasa",2008,1,1,1,1,1,1,1,1,1,1,1,1,0,0,0,0,"MOOCA",-23.5593955,-46.5697981,0
"310.000",8157,38,2,0,1,0,"condominio moment analia franco","rua quixada, 60 . agua rasa",2021,1,1,0,1,1,1,1,1,0,1,1,1,0,0,0,0,"MOOCA",-23.5660475,-46.5670933,0
"300.000",8823,34,2,0,1,0,"ND","0",NA,NA,NA,NA,NA,NA,NA,NA,NA,NA,NA,NA,NA,NA,NA,NA,NA,NA,NA,NA,0
"285.000",5588,51,2,0,1,0,"ND","0",NA,NA,NA,NA,NA,NA,NA,NA,NA,NA,NA,NA,NA,NA,NA,NA,NA,NA,NA,NA,0
"304.000",5629,54,2,0,1,1,"condominio cairiri","avenida vila ema, 1301 . agua rasa",1977,1,1,1,1,0,0,0,0,0,0,0,0,0,0,0,1,"MOOCA",-23.5812429,-46.5641329,0
"220.000",5945,37,1,0,1,0,"ND","0",NA,NA,NA,NA,NA,NA,NA,NA,NA,NA,NA,NA,NA,NA,NA,NA,NA,NA,NA,NA,0
"780.000",10.54,74,3,1,3,2,"condominio piazza di verona","rua pantojo, 631 . agua rasa",2013,2,1,1,1,1,1,1,1,0,1,1,1,0,0,0,0,"MOOCA",-23.5589195,-46.5710108,0
"240.000",6153,39,1,0,1,0,"ND","0",NA,NA,NA,NA,NA,NA,NA,NA,NA,NA,NA,NA,NA,NA,NA,NA,NA,NA,NA,NA,0
"390.000",6500,60,2,0,1,1,"condominio franco","rua piracununga, 95 . agua rasa",1985,1,1,1,0,0,0,0,0,0,0,1,0,0,0,0,0,"MOOCA",-23.5588238,-46.579704,0
"375.000",5769,65,2,0,2,1,"ND","0",NA,NA,NA,NA,NA,NA,NA,NA,NA,NA,NA,NA,NA,NA,NA,NA,NA,NA,NA,NA,0
"407.117",8308,49,2,0,1,1,"condominio cotes du rhone","avenida vereador abel ferreira, 1950 . agua rasa",2002,3,1,1,1,1,1,1,1,1,1,1,1,0,0,0,0,"MOOCA",-23.564187,-46.5615776,0
"650.000",10.317,63,2,1,2,1,"condominio rossi estilo mooca","rua teresina, 645 . agua rasa",2014,1,1,1,1,1,1,1,1,1,0,1,1,0,0,0,0,"MOOCA",-23.5654121,-46.5830511,0
"240.000",6486,37,1,0,1,0,"ND","0",NA,NA,NA,NA,NA,NA,NA,NA,NA,NA,NA,NA,NA,NA,NA,NA,NA,NA,NA,NA,0
"285.000",5588,51,2,0,1,0,"ND","0",NA,NA,NA,NA,NA,NA,NA,NA,NA,NA,NA,NA,NA,NA,NA,NA,NA,NA,NA,NA,0
"240.000",5714,42,1,0,1,0,"ND","0",NA,NA,NA,NA,NA,NA,NA,NA,NA,NA,NA,NA,NA,NA,NA,NA,NA,NA,NA,NA,0
"530.000",9298,57,2,1,2,1,"condominio totalita","rua corumbaiba, 589 . agua rasa",2014,1,1,1,1,1,1,1,1,1,1,1,1,0,0,0,0,"MOOCA",-23.570242,-46.5757522,0
"285.000",5588,51,2,0,1,0,"ND","0",NA,NA,NA,NA,NA,NA,NA,NA,NA,NA,NA,NA,NA,NA,NA,NA,NA,NA,NA,NA,0
"240.000",6153,39,1,0,1,0,"ND","0",NA,NA,NA,NA,NA,NA,NA,NA,NA,NA,NA,NA,NA,NA,NA,NA,NA,NA,NA,NA,0
"700.000",10000,70,2,1,1,1,"condominio max haus af","rua analia franco, 30 . agua rasa",2010,2,1,1,1,1,1,1,1,0,1,1,1,0,0,0,0,"MOOCA",-23.5569203,-46.5727288,0
"230.000",6216,37,1,0,1,0,"ND","0",NA,NA,NA,NA,NA,NA,NA,NA,NA,NA,NA,NA,NA,NA,NA,NA,NA,NA,NA,NA,0
"220.000",5641,39,1,0,1,0,"ND","0",NA,NA,NA,NA,NA,NA,NA,NA,NA,NA,NA,NA,NA,NA,NA,NA,NA,NA,NA,NA,0
"230.000",5897,39,1,0,1,0,"ND","0",NA,NA,NA,NA,NA,NA,NA,NA,NA,NA,NA,NA,NA,NA,NA,NA,NA,NA,NA,NA,0
"620.000",9117,68,3,1,2,2,"condominio cotes du rhone","avenida vereador abel ferreira, 1950 . agua rasa",2002,3,1,1,1,1,1,1,1,1,1,1,1,0,0,0,0,"MOOCA",-23.564187,-46.5615776,0
"350.000",5072,69,3,0,1,0,"condominio violeta","rua rui martins, 102 . agua rasa",1970,1,1,0,0,0,0,0,1,0,0,0,0,0,0,0,0,"MOOCA",-23.5634339,-46.5865211,0
"240.000",7058,34,1,0,1,0,"ND","0",NA,NA,NA,NA,NA,NA,NA,NA,NA,NA,NA,NA,NA,NA,NA,NA,NA,NA,NA,NA,0
"235.000",6025,39,1,0,1,0,"ND","0",NA,NA,NA,NA,NA,NA,NA,NA,NA,NA,NA,NA,NA,NA,NA,NA,NA,NA,NA,NA,0
"285.000",6195,46,2,0,1,0,"ND","0",NA,NA,NA,NA,NA,NA,NA,NA,NA,NA,NA,NA,NA,NA,NA,NA,NA,NA,NA,NA,0
"777.000",9141,85,3,1,2,2,"condominio my home","rua amapa, 116 . agua rasa",2013,1,1,1,1,1,1,1,1,1,1,1,1,0,0,0,0,"MOOCA",-23.5699267,-46.5708337,0
"1.400.000",11.382,123,3,1,5,3,"condominio terrazo vivere alto da mooca","rua campo largo, 252 . agua rasa",2009,1,1,1,1,1,1,1,1,1,1,1,1,0,0,0,0,"MOOCA",-23.5676197,-46.5833202,0
"285.000",5480,52,2,0,1,0,"ND","0",NA,NA,NA,NA,NA,NA,NA,NA,NA,NA,NA,NA,NA,NA,NA,NA,NA,NA,NA,NA,0
"745.000",8186,91,3,1,2,2,"condominio montjuic plaza","rua pantojo, 917 . agua rasa",1999,1,1,1,1,1,1,1,1,1,1,1,1,0,0,0,0,"MOOCA",-23.5601936,-46.5684228,0
"240.000",6000,40,1,0,1,0,"ND","0",NA,NA,NA,NA,NA,NA,NA,NA,NA,NA,NA,NA,NA,NA,NA,NA,NA,NA,NA,NA,0
"245.000",5104,48,1,0,1,0,"ND","0",NA,NA,NA,NA,NA,NA,NA,NA,NA,NA,NA,NA,NA,NA,NA,NA,NA,NA,NA,NA,0
"235.000",5595,42,1,0,1,0,"ND","0",NA,NA,NA,NA,NA,NA,NA,NA,NA,NA,NA,NA,NA,NA,NA,NA,NA,NA,NA,NA,0
"1.200.000",10.714,112,3,1,4,2,"condominio premium analia franco","rua analia franco, 311 . agua rasa",2011,1,1,1,1,1,1,1,1,0,1,1,1,0,0,0,0,"MOOCA",-23.5594556,-46.5731881,0
"750.000",9493,79,3,1,2,2,"ND","0",NA,NA,NA,NA,NA,NA,NA,NA,NA,NA,NA,NA,NA,NA,NA,NA,NA,NA,NA,NA,0
"1.290.000",10.32,125,3,1,2,2,"condominio montemagno club","avenida montemagno, 501 . agua rasa",2011,4,1,1,1,1,1,1,1,1,1,1,1,0,0,0,0,"MOOCA",-23.566403,-46.5582354,0
"220.000",5641,39,1,1,1,0,"ND","0",NA,NA,NA,NA,NA,NA,NA,NA,NA,NA,NA,NA,NA,NA,NA,NA,NA,NA,NA,NA,0
"690.000",9583,72,3,1,2,1,"condominio villa d'este","rua natal, 386 . agua rasa",1999,1,1,1,1,1,1,0,1,1,1,1,1,0,0,0,0,"MOOCA",-23.5623204,-46.5823604,0
"235.000",6025,39,1,0,1,0,"ND","0",NA,NA,NA,NA,NA,NA,NA,NA,NA,NA,NA,NA,NA,NA,NA,NA,NA,NA,NA,NA,0
"1.185.000",6970,170,3,1,3,2,"ND","0",NA,NA,NA,NA,NA,NA,NA,NA,NA,NA,NA,NA,NA,NA,NA,NA,NA,NA,NA,NA,0
"220.000",5365,41,1,0,1,0,"ND","0",NA,NA,NA,NA,NA,NA,NA,NA,NA,NA,NA,NA,NA,NA,NA,NA,NA,NA,NA,NA,0
"285.000",4453,64,2,0,1,0,"ND","0",NA,NA,NA,NA,NA,NA,NA,NA,NA,NA,NA,NA,NA,NA,NA,NA,NA,NA,NA,NA,0
"650.000",7471,87,3,1,2,2,"condominio montjuic plaza","rua pantojo, 917 . agua rasa",1999,1,1,1,1,1,1,1,1,1,1,1,1,0,0,0,0,"MOOCA",-23.5601936,-46.5684228,0
"950.000",7142,133,3,1,3,2,"ND","0",NA,NA,NA,NA,NA,NA,NA,NA,NA,NA,NA,NA,NA,NA,NA,NA,NA,NA,NA,NA,0
"235.000",5875,40,1,0,1,0,"ND","0",NA,NA,NA,NA,NA,NA,NA,NA,NA,NA,NA,NA,NA,NA,NA,NA,NA,NA,NA,NA,0
